{
  "aclimação|joão monlevade|mg": {
    "display_name": "Aclimação, João Monlevade, Região Geográfica Imediata de João Monlevade, Região Geográfica Intermediária de Ipatinga, Minas Gerais, 35930-112, Brasil",
    "lat": -19.8148855,
    "lng": -43.1883316,
    "query": "ACLIMAÇÃO, JOÃO MONLEVADE, Minas Gerais, Brasil",
    "source": "neighborhood",
    "status": "ok",
    "uf": "MG"
  },
  "aeroporto ii|bom despacho|mg": {
    "display_name": "Aeroporto, Bom Despacho, Região Geográfica Imediata de Dores do Indaiá, Região Geográfica Intermediária de Divinópolis, Minas Gerais, 35637-899, Brasil",
    "lat": -19.7444792,
    "lng": -45.284636,
    "query": "AEROPORTO II, BOM DESPACHO, Minas Gerais, Brasil",
    "source": "neighborhood",
    "status": "ok",
    "uf": "MG"
  },
  "aeroporto ii|itaúna|mg": {
    "display_name": "Aeroporto, Itaúna, Região Geográfica Imediata de Divinópolis, Região Geográfica Intermediária de Divinópolis, Minas Gerais, Brasil",
    "lat": -20.0961181,
    "lng": -44.5980872,
    "query": "AEROPORTO II, ITAÚNA, Minas Gerais, Brasil",
    "source": "neighborhood",
    "status": "ok",
    "uf": "MG"
  },
  "aeroporto industrial|sete lagoas|mg": {
    "display_name": "Sete Lagoas, Região Geográfica Imediata de Sete Lagoas, Região Geográfica Intermediária de Belo Horizonte, Minas Gerais, Brasil",
    "lat": -19.466111,
    "lng": -44.246944,
    "query": "SETE LAGOAS, Minas Gerais, Brasil",
    "source": "city",
    "status": "ok",
    "uf": "MG"
  },
  "algodões|janaúba|mg": {
    "display_name": "Algodões, Janaúba, Região Geográfica Imediata de Janaúba, Região Geográfica Intermediária de Montes Claros, Minas Gerais, Brasil",
    "lat": -15.8396139,
    "lng": -43.3001233,
    "query": "ALGODÕES, JANAÚBA, Minas Gerais, Brasil",
    "source": "neighborhood",
    "status": "ok",
    "uf": "MG"
  },
  "alto dos passos|juiz de fora|mg": {
    "display_name": "Alto dos Passos, Juiz de Fora, Região Geográfica Imediata de Juiz de Fora, Região Geográfica Intermediária de Juiz de Fora, Minas Gerais, Região Sudeste, Brasil",
    "lat": -21.7762548,
    "lng": -43.3474599,
    "query": "Alto dos Passos, Juiz de Fora, Minas Gerais, Brasil",
    "source": "neighborhood",
    "status": "ok",
    "uf": "MG"
  },
  "alto dos pirineus|leopoldina|mg": {
    "display_name": "Leopoldina, Região Geográfica Imediata de Cataguases, Região Geográfica Intermediária de Juiz de Fora, Minas Gerais, 36700-192, Brasil",
    "lat": -21.5314282,
    "lng": -42.6403534,
    "query": "LEOPOLDINA, Minas Gerais, Brasil",
    "source": "city",
    "status": "ok",
    "uf": "MG"
  },
  "alto sta cruz|itinga|mg": {
    "display_name": "Rua Alto São João, Santo Antônio do Itinga, Santa Cruz de Salinas, Região Geográfica Imediata de Salinas, Região Geográfica Intermediária de Montes Claros, Minas Gerais, Brasil",
    "lat": -16.1233602,
    "lng": -41.8027717,
    "query": "ALTO STA CRUZ, ITINGA, Minas Gerais, Brasil",
    "source": "neighborhood",
    "status": "ok",
    "uf": "MG"
  },
  "alto são joão|espinosa|mg": {
    "display_name": "Espinosa, Região Geográfica Imediata de Espinosa, Região Geográfica Intermediária de Montes Claros, Minas Gerais, 39510-000, Brasil",
    "lat": -14.9232007,
    "lng": -42.8093337,
    "query": "ESPINOSA, Minas Gerais, Brasil",
    "source": "city",
    "status": "ok",
    "uf": "MG"
  },
  "alto vera cruz|belo horizonte|mg": {
    "display_name": "Alto Vera Cruz, Regional Leste, Belo Horizonte, Região Geográfica Imediata de Belo Horizonte, Região Metropolitana de Belo Horizonte, Região Geográfica Intermediária de Belo Horizonte, Minas Gerais, Brasil",
    "lat": -19.9103984,
    "lng": -43.8910444,
    "query": "ALTO VERA CRUZ, BELO HORIZONTE, Minas Gerais, Brasil",
    "source": "neighborhood",
    "status": "ok",
    "uf": "MG"
  },
  "alvorada|contagem|mg": {
    "display_name": "Alvorada, Sede, Contagem, Região Geográfica Imediata de Belo Horizonte, Região Metropolitana de Belo Horizonte, Região Geográfica Intermediária de Belo Horizonte, Minas Gerais, 32042-080, Brasil",
    "lat": -19.9044781,
    "lng": -44.0793923,
    "query": "ALVORADA, CONTAGEM, Minas Gerais, Brasil",
    "source": "neighborhood",
    "status": "ok",
    "uf": "MG"
  },
  "alvorada|jequitinhonha|mg": {
    "display_name": "Jequitinhonha, Região Geográfica Imediata de Almenara, Região Geográfica Intermediária de Teófilo Otoni, Minas Gerais, Brasil",
    "lat": -16.4335098,
    "lng": -41.0035557,
    "query": "JEQUITINHONHA, Minas Gerais, Brasil",
    "source": "city",
    "status": "ok",
    "uf": "MG"
  },
  "amazonas|betim|mg": {
    "display_name": "Amazonas, Regional Teresópolis, Betim, Região Geográfica Imediata de Belo Horizonte, Região Metropolitana de Belo Horizonte, Região Geográfica Intermediária de Belo Horizonte, Minas Gerais, Região Sudeste, Brasil",
    "lat": -19.9479561,
    "lng": -44.0999228,
    "query": "AMAZONAS, BETIM, Minas Gerais, Brasil",
    "source": "neighborhood",
    "status": "ok",
    "uf": "MG"
  },
  "amazonas|contagem|mg": {
    "display_name": "Amazonas 1ª Seção, Bairro Amazonas, Parque Industrial, Contagem, Região Geográfica Imediata de Belo Horizonte, Região Metropolitana de Belo Horizonte, Região Geográfica Intermediária de Belo Horizonte, Minas Gerais, Brasil",
    "lat": -19.9669025,
    "lng": -44.0432327,
    "query": "AMAZONAS, CONTAGEM, Minas Gerais, Brasil",
    "source": "neighborhood",
    "status": "ok",
    "uf": "MG"
  },
  "areado|lajinha|mg": {
    "display_name": "Areado, Lajinha, Região Geográfica Imediata de Manhuaçu, Região Geográfica Intermediária de Juiz de Fora, Minas Gerais, Brasil",
    "lat": -20.1662239,
    "lng": -41.6467442,
    "query": "AREADO, LAJINHA, Minas Gerais, Brasil",
    "source": "neighborhood",
    "status": "ok",
    "uf": "MG"
  },
  "areias brancas|formiga|mg": {
    "display_name": "Mercearia Areias Brancas, 171, Rua José Alves Pereira, Formiga, Região Geográfica Imediata de Formiga, Região Geográfica Intermediária de Divinópolis, Minas Gerais, 35570-000, Brasil",
    "lat": -20.4669677,
    "lng": -45.4382539,
    "query": "AREIAS BRANCAS, FORMIGA, Minas Gerais, Brasil",
    "source": "neighborhood",
    "status": "ok",
    "uf": "MG"
  },
  "aristides vieira de mendonça|três pontas|mg": {
    "display_name": "Aristides Vieira de Mendonça, Três Pontas, Região Geográfica Imediata de Três Pontas - Boa Esperança, Região Geográfica Intermediária de Varginha, Minas Gerais, 37190-000, Brasil",
    "lat": -21.3814806,
    "lng": -45.5210377,
    "query": "ARISTIDES VIEIRA DE MENDONÇA, TRÊS PONTAS, Minas Gerais, Brasil",
    "source": "neighborhood",
    "status": "ok",
    "uf": "MG"
  },
  "b-leblon|belo horizonte|mg": {
    "display_name": "Área de Lazer e Parque do bairro Jardim Leblon, Vila Várzea da Palma, Jardim Leblon, Venda Nova, Belo Horizonte, Região Geográfica Imediata de Belo Horizonte, Região Metropolitana de Belo Horizonte, Região Geográfica Intermediária de Belo Horizonte, Minas Gerais, Brasil",
    "lat": -19.8209259,
    "lng": -43.9895654,
    "query": "B-LEBLON, BELO HORIZONTE, Minas Gerais, Brasil",
    "source": "neighborhood",
    "status": "ok",
    "uf": "MG"
  },
  "bairro das flores|inhapim|mg": {
    "display_name": "Inhapim, Região Geográfica Imediata de Caratinga, Região Geográfica Intermediária de Ipatinga, Minas Gerais, Região Sudeste, Brasil",
    "lat": -19.5501834,
    "lng": -42.1209879,
    "query": "INHAPIM, Minas Gerais, Brasil",
    "source": "city",
    "status": "ok",
    "uf": "MG"
  },
  "bairro shangrila|pouso alegre|mg": {
    "display_name": "Pouso Alegre, Região Geográfica Imediata de Pouso Alegre, Região Geográfica Intermediária de Pouso Alegre, Minas Gerais, Brasil",
    "lat": -22.2343858,
    "lng": -45.9327241,
    "query": "Pouso Alegre, Minas Gerais, Brasil",
    "source": "city",
    "status": "ok",
    "uf": "MG"
  },
  "baixada|manhuaçu|mg": {
    "display_name": "Baixada, Manhuaçu, Região Geográfica Imediata de Manhuaçu, Região Geográfica Intermediária de Juiz de Fora, Minas Gerais, 36902-045, Brasil",
    "lat": -20.2500653,
    "lng": -42.0309637,
    "query": "Baixada, MANHUAÇU, Minas Gerais, Brasil",
    "source": "neighborhood",
    "status": "ok",
    "uf": "MG"
  },
  "balduíno|canápolis|mg": {
    "display_name": "Balduíno, Canápolis, Região Geográfica Imediata de Uberlândia, Região Geográfica Intermediária de Uberlândia, Minas Gerais, Brasil",
    "lat": -18.7175167,
    "lng": -49.205273,
    "query": "BALDUÍNO, CANÁPOLIS, Minas Gerais, Brasil",
    "source": "neighborhood",
    "status": "ok",
    "uf": "MG"
  },
  "bandeirantes|contagem|mg": {
    "display_name": "Bandeirantes, Parque Industrial, Contagem, Região Geográfica Imediata de Belo Horizonte, Região Metropolitana de Belo Horizonte, Região Geográfica Intermediária de Belo Horizonte, Minas Gerais, 32240-560, Brasil",
    "lat": -19.9661406,
    "lng": -44.0498975,
    "query": "BANDEIRANTES, CONTAGEM, Minas Gerais, Brasil",
    "source": "neighborhood",
    "status": "ok",
    "uf": "MG"
  },
  "barbosa lage|juiz de fora|mg": {
    "display_name": "Barbosa Lage, Juiz de Fora, Região Geográfica Imediata de Juiz de Fora, Região Geográfica Intermediária de Juiz de Fora, Minas Gerais, Brasil",
    "lat": -21.719425,
    "lng": -43.396732,
    "query": "Barbosa Lage, JUIZ DE FORA, Minas Gerais, Brasil",
    "source": "neighborhood",
    "status": "ok",
    "uf": "MG"
  },
  "baronesa|santa luzia|mg": {
    "display_name": "Ribeirão Baronesa, Nossa Senhora das Graças, Santa Luzia, Região Geográfica Imediata de Belo Horizonte, Região Metropolitana de Belo Horizonte, Região Geográfica Intermediária de Belo Horizonte, Minas Gerais, Brasil",
    "lat": -19.7668007,
    "lng": -43.8828071,
    "query": "BARONESA, SANTA LUZIA, Minas Gerais, Brasil",
    "source": "neighborhood",
    "status": "ok",
    "uf": "MG"
  },
  "barra|januária|mg": {
    "display_name": "Barra do Jaboticaba, São Joaquim, Januária, Região Geográfica Imediata de Januária, Região Geográfica Intermediária de Montes Claros, Minas Gerais, Brasil",
    "lat": -15.5566773,
    "lng": -45.1600895,
    "query": "BARRA, JANUÁRIA, Minas Gerais, Brasil",
    "source": "neighborhood",
    "status": "ok",
    "uf": "MG"
  },
  "barra|muriaé|mg": {
    "display_name": "Barra, Muriaé, Região Geográfica Imediata de Muriaé, Região Geográfica Intermediária de Juiz de Fora, Minas Gerais, 36880-005, Brasil",
    "lat": -21.129679,
    "lng": -42.3728608,
    "query": "BARRA, MURIAÉ, Minas Gerais, Brasil",
    "source": "neighborhood",
    "status": "ok",
    "uf": "MG"
  },
  "barreiro do rio verde|verdelândia|mg": {
    "display_name": "Barreiro do Rio Verde, Verdelândia, Região Geográfica Imediata de Janaúba, Região Geográfica Intermediária de Montes Claros, Minas Gerais, Brasil",
    "lat": -15.6132206,
    "lng": -43.600507,
    "query": "BARREIRO DO RIO VERDE, VERDELÂNDIA, Minas Gerais, Brasil",
    "source": "neighborhood",
    "status": "ok",
    "uf": "MG"
  },
  "barreiro|belo horizonte|mg": {
    "display_name": "Barreiro, Belo Horizonte, Região Geográfica Imediata de Belo Horizonte, Região Metropolitana de Belo Horizonte, Região Geográfica Intermediária de Belo Horizonte, Minas Gerais, Brasil",
    "lat": -20.0035117,
    "lng": -44.0053391,
    "query": "BARREIRO, BELO HORIZONTE, Minas Gerais, Brasil",
    "source": "neighborhood",
    "status": "ok",
    "uf": "MG"
  },
  "bela vista|caratinga|mg": {
    "display_name": "Bela Vista, São Domingos das Dores, Região Geográfica Imediata de Caratinga, Região Geográfica Intermediária de Ipatinga, Minas Gerais, 35335-000, Brasil",
    "lat": -19.5225574,
    "lng": -42.0161493,
    "query": "BELA VISTA, CARATINGA, Minas Gerais, Brasil",
    "source": "neighborhood",
    "status": "ok",
    "uf": "MG"
  },
  "bela vista|cataguases|mg": {
    "display_name": "Bela Vista, Imigrantes, Cataguases, Região Geográfica Imediata de Cataguases, Região Geográfica Intermediária de Juiz de Fora, Minas Gerais, 36770-070, Brasil",
    "lat": -21.3870095,
    "lng": -42.6888478,
    "query": "BELA VISTA, CATAGUASES, Minas Gerais, Brasil",
    "source": "neighborhood",
    "status": "ok",
    "uf": "MG"
  },
  "bela vista|joaíma|mg": {
    "display_name": "Fazenda Bela Vista, Joaíma, Região Geográfica Imediata de Almenara, Região Geográfica Intermediária de Teófilo Otoni, Minas Gerais, Brasil",
    "lat": -16.7659604,
    "lng": -40.7534409,
    "query": "BELA VISTA, JOAÍMA, Minas Gerais, Brasil",
    "source": "neighborhood",
    "status": "ok",
    "uf": "MG"
  },
  "bela vista|lagoa santa|mg": {
    "display_name": "Bela Vista, Lagoa Santa, Região Geográfica Imediata de Belo Horizonte, Região Metropolitana de Belo Horizonte, Região Geográfica Intermediária de Belo Horizonte, Minas Gerais, 33239-206, Brasil",
    "lat": -19.639513,
    "lng": -43.9058319,
    "query": "BELA VISTA, LAGOA SANTA, Minas Gerais, Brasil",
    "source": "neighborhood",
    "status": "ok",
    "uf": "MG"
  },
  "bela vista|leopoldina|mg": {
    "display_name": "Fazenda Bela Vista, Tebas, Leopoldina, Região Geográfica Imediata de Cataguases, Região Geográfica Intermediária de Juiz de Fora, Minas Gerais, Brasil",
    "lat": -21.6113459,
    "lng": -42.7607693,
    "query": "BELA VISTA, LEOPOLDINA, Minas Gerais, Brasil",
    "source": "neighborhood",
    "status": "ok",
    "uf": "MG"
  },
  "bela vista|ouro fino|mg": {
    "display_name": "Escola Estadual Professor Guerino Casasanta, 2009, Rua Treze de Maio, Centro, Ouro Fino, Região Geográfica Imediata de Pouso Alegre, Região Geográfica Intermediária de Pouso Alegre, Minas Gerais, 37570-000, Brasil",
    "lat": -22.2865338,
    "lng": -46.3810198,
    "query": "RUA TREZE DE MAIO, 2009, BELA VISTA, OURO FINO, Minas Gerais, Brasil",
    "source": "address",
    "status": "ok",
    "uf": "MG"
  },
  "belo horizonte|buritizeiro|mg": {
    "display_name": "Belo Horizonte, Buritizeiro, Região Geográfica Imediata de Pirapora, Região Geográfica Intermediária de Montes Claros, Minas Gerais, 39280-000, Brasil",
    "lat": -17.378381,
    "lng": -44.9682433,
    "query": "BELO HORIZONTE, BURITIZEIRO, Minas Gerais, Brasil",
    "source": "neighborhood",
    "status": "ok",
    "uf": "MG"
  },
  "benfica|juiz de fora|mg": {
    "display_name": "Benfica, Juiz de Fora, Região Geográfica Imediata de Juiz de Fora, Região Geográfica Intermediária de Juiz de Fora, Minas Gerais, Região Sudeste, Brasil",
    "lat": -21.6902673,
    "lng": -43.4361424,
    "query": "Benfica, JUIZ DE FORA, Minas Gerais, Brasil",
    "source": "neighborhood",
    "status": "ok",
    "uf": "MG"
  },
  "benfica|minas novas|mg": {
    "display_name": "Minas Novas, Região Geográfica Imediata de Capelinha, Região Geográfica Intermediária de Teófilo Otoni, Minas Gerais, 39650-000, Brasil",
    "lat": -17.2174708,
    "lng": -42.5948332,
    "query": "MINAS NOVAS, Minas Gerais, Brasil",
    "source": "city",
    "status": "ok",
    "uf": "MG"
  },
  "bernardo monteiro|contagem|mg": {
    "display_name": "Bernardo Monteiro, Sede, Contagem, Região Geográfica Imediata de Belo Horizonte, Região Metropolitana de Belo Horizonte, Região Geográfica Intermediária de Belo Horizonte, Minas Gerais, Brasil",
    "lat": -19.9325254,
    "lng": -44.0862893,
    "query": "Bernardo Monteiro, Contagem, Minas Gerais, Brasil",
    "source": "neighborhood",
    "status": "ok",
    "uf": "MG"
  },
  "bethânia|ipatinga|mg": {
    "display_name": "Bethânia, Ipatinga, Região Geográfica Imediata de Ipatinga, Região Metropolitana do Vale do Aço, Região Geográfica Intermediária de Ipatinga, Minas Gerais, 35164-093, Brasil",
    "lat": -19.4355359,
    "lng": -42.5529457,
    "query": "BETHÂNIA, IPATINGA, Minas Gerais, Brasil",
    "source": "neighborhood",
    "status": "ok",
    "uf": "MG"
  },
  "boa esperança|santa luzia|mg": {
    "display_name": "Boa Esperança, Santa Luzia, Região Geográfica Imediata de Belo Horizonte, Região Metropolitana de Belo Horizonte, Região Geográfica Intermediária de Belo Horizonte, Minas Gerais, 30010-200, Brasil",
    "lat": -19.7648274,
    "lng": -43.8659593,
    "query": "BOA ESPERANÇA, SANTA LUZIA, Minas Gerais, Brasil",
    "source": "neighborhood",
    "status": "ok",
    "uf": "MG"
  },
  "boa vista|belo horizonte|mg": {
    "display_name": "Boa Vista, Regional Leste, Belo Horizonte, Região Geográfica Imediata de Belo Horizonte, Região Metropolitana de Belo Horizonte, Região Geográfica Intermediária de Belo Horizonte, Minas Gerais, Brasil",
    "lat": -19.8940712,
    "lng": -43.9036739,
    "query": "BOA VISTA, BELO HORIZONTE, Minas Gerais, Brasil",
    "source": "neighborhood",
    "status": "ok",
    "uf": "MG"
  },
  "boa vista|janaúba|mg": {
    "display_name": "Boa Vista, Janaúba, Região Geográfica Imediata de Janaúba, Região Geográfica Intermediária de Montes Claros, Minas Gerais, Brasil",
    "lat": -15.8002647,
    "lng": -43.3269024,
    "query": "BOA VISTA, JANAÚBA, Minas Gerais, Brasil",
    "source": "neighborhood",
    "status": "ok",
    "uf": "MG"
  },
  "boa vista|matipó|mg": {
    "display_name": "Rua Boa Vista, Matipó, Região Geográfica Imediata de Manhuaçu, Região Geográfica Intermediária de Juiz de Fora, Minas Gerais, Brasil",
    "lat": -20.2844816,
    "lng": -42.3459058,
    "query": "Boa Vista, MATIPÓ, Minas Gerais, Brasil",
    "source": "neighborhood",
    "status": "ok",
    "uf": "MG"
  },
  "boa vista|sete lagoas|mg": {
    "display_name": "Boa Vista, Sete Lagoas, Região Geográfica Imediata de Sete Lagoas, Região Geográfica Intermediária de Belo Horizonte, Minas Gerais, 35700-116, Brasil",
    "lat": -19.4587831,
    "lng": -44.2368379,
    "query": "BOA VISTA, SETE LAGOAS, Minas Gerais, Brasil",
    "source": "neighborhood",
    "status": "ok",
    "uf": "MG"
  },
  "bom jardim-|manhuaçu|mg": {
    "display_name": "Bom Jardim, Bela Vista, Manhuaçu, Região Geográfica Imediata de Manhuaçu, Região Geográfica Intermediária de Juiz de Fora, Minas Gerais, 36906-256, Brasil",
    "lat": -20.2746695,
    "lng": -42.0407813,
    "query": "Bom Jardim-, MANHUAÇU, Minas Gerais, Brasil",
    "source": "neighborhood",
    "status": "ok",
    "uf": "MG"
  },
  "bom jardim|ipatinga|mg": {
    "display_name": "Bom Jardim, Ipatinga, Região Geográfica Imediata de Ipatinga, Região Metropolitana do Vale do Aço, Região Geográfica Intermediária de Ipatinga, Minas Gerais, 35162-292, Brasil",
    "lat": -19.4788037,
    "lng": -42.5802133,
    "query": "BOM JARDIM, IPATINGA, Minas Gerais, Brasil",
    "source": "neighborhood",
    "status": "ok",
    "uf": "MG"
  },
  "bom jesus|matozinhos|mg": {
    "display_name": "Bom Jesus I, Matozinhos, Região Geográfica Imediata de Sete Lagoas, Região Metropolitana de Belo Horizonte, Região Geográfica Intermediária de Belo Horizonte, Minas Gerais, 35720-000, Brasil",
    "lat": -19.5671161,
    "lng": -44.0660957,
    "query": "BOM JESUS, MATOZINHOS, Minas Gerais, Brasil",
    "source": "neighborhood",
    "status": "ok",
    "uf": "MG"
  },
  "bom jesus|pirapora|mg": {
    "display_name": "Bom Jesus, Pirapora, Região Geográfica Imediata de Pirapora, Região Geográfica Intermediária de Montes Claros, Minas Gerais, 39272-114, Brasil",
    "lat": -17.3603906,
    "lng": -44.9444379,
    "query": "BOM JESUS, PIRAPORA, Minas Gerais, Brasil",
    "source": "neighborhood",
    "status": "ok",
    "uf": "MG"
  },
  "bom jesus|uberlândia|mg": {
    "display_name": "Bom Jesus, Setor Central, Uberlândia, Região Geográfica Imediata de Uberlândia, Região Geográfica Intermediária de Uberlândia, Minas Gerais, Brasil",
    "lat": -18.9019364,
    "lng": -48.2732857,
    "query": "BOM JESUS, UBERLÂNDIA, Minas Gerais, Brasil",
    "source": "neighborhood",
    "status": "ok",
    "uf": "MG"
  },
  "bom pastor|manhuaçu|mg": {
    "display_name": "Bom Pastor, Baixada, Manhuaçu, Região Geográfica Imediata de Manhuaçu, Região Geográfica Intermediária de Juiz de Fora, Minas Gerais, Brasil",
    "lat": -20.2427264,
    "lng": -42.0273405,
    "query": "Bom Pastor, MANHUAÇU, Minas Gerais, Brasil",
    "source": "neighborhood",
    "status": "ok",
    "uf": "MG"
  },
  "bom retiro leste|ipatinga|mg": {
    "display_name": "Ipatinga, Região Geográfica Imediata de Ipatinga, Região Metropolitana do Vale do Aço, Região Geográfica Intermediária de Ipatinga, Minas Gerais, Brasil",
    "lat": -19.4777807,
    "lng": -42.5270802,
    "query": "IPATINGA, Minas Gerais, Brasil",
    "source": "city",
    "status": "ok",
    "uf": "MG"
  },
  "bonfim|pedra azul|mg": {
    "display_name": "Bonfim, Pedra Azul, Região Geográfica Imediata de Pedra Azul, Região Geográfica Intermediária de Teófilo Otoni, Minas Gerais, Brasil",
    "lat": -15.9910958,
    "lng": -41.2754223,
    "query": "BONFIM, PEDRA AZUL, Minas Gerais, Brasil",
    "source": "neighborhood",
    "status": "ok",
    "uf": "MG"
  },
  "bonsucesso|belo horizonte|mg": {
    "display_name": "Bonsucesso, Barreiro, Belo Horizonte, Região Geográfica Imediata de Belo Horizonte, Região Metropolitana de Belo Horizonte, Região Geográfica Intermediária de Belo Horizonte, Minas Gerais, Brasil",
    "lat": -19.9866291,
    "lng": -43.9796464,
    "query": "BONSUCESSO, BELO HORIZONTE, Minas Gerais, Brasil",
    "source": "neighborhood",
    "status": "ok",
    "uf": "MG"
  },
  "borboleta|juiz de fora|mg": {
    "display_name": "Borboleta, Juiz de Fora, Região Geográfica Imediata de Juiz de Fora, Região Geográfica Intermediária de Juiz de Fora, Minas Gerais, Brasil",
    "lat": -21.7560424,
    "lng": -43.3795655,
    "query": "Borboleta, Juiz de Fora, Minas Gerais, Brasil",
    "source": "neighborhood",
    "status": "ok",
    "uf": "MG"
  },
  "bosque da saúde|são paulo|mg": {
    "display_name": "São Paulo, Governador Valadares, Região Geográfica Imediata de Governador Valadares, Região Geográfica Intermediária de Governador Valadares, Minas Gerais, Região Sudeste, Brasil",
    "lat": -18.8757627,
    "lng": -41.9547086,
    "query": "SÃO PAULO, Minas Gerais, Brasil",
    "source": "city",
    "status": "ok",
    "uf": "MG"
  },
  "botafogo|ribeirão das neves|mg": {
    "display_name": "Botafogo, Justinópolis, Ribeirão das Neves, Região Geográfica Imediata de Belo Horizonte, Região Metropolitana de Belo Horizonte, Região Geográfica Intermediária de Belo Horizonte, Minas Gerais, 33903-400, Brasil",
    "lat": -19.7898899,
    "lng": -44.0194844,
    "query": "BOTAFOGO, RIBEIRÃO DAS NEVES, Minas Gerais, Brasil",
    "source": "neighborhood",
    "status": "ok",
    "uf": "MG"
  },
  "botafogo|três pontas|mg": {
    "display_name": "Botafogo, Três Pontas, Região Geográfica Imediata de Três Pontas - Boa Esperança, Região Geográfica Intermediária de Varginha, Minas Gerais, 37190-000, Brasil",
    "lat": -21.3724778,
    "lng": -45.508328,
    "query": "BOTAFOGO, TRÊS PONTAS, Minas Gerais, Brasil",
    "source": "neighborhood",
    "status": "ok",
    "uf": "MG"
  },
  "boulevard lago sul|itauna|mg": {
    "display_name": "Itaúna, Região Geográfica Imediata de Divinópolis, Região Geográfica Intermediária de Divinópolis, Minas Gerais, Brasil",
    "lat": -20.075556,
    "lng": -44.576389,
    "query": "ITAUNA, Minas Gerais, Brasil",
    "source": "city",
    "status": "ok",
    "uf": "MG"
  },
  "brumal|santa bárbara|mg": {
    "display_name": "Brumal, Santa Bárbara, Região Geográfica Imediata de Santa Bárbara - Ouro Preto, Região Geográfica Intermediária de Belo Horizonte, Minas Gerais, Brasil",
    "lat": -20.0325747,
    "lng": -43.5112778,
    "query": "BRUMAL, SANTA BÁRBARA, Minas Gerais, Brasil",
    "source": "neighborhood",
    "status": "ok",
    "uf": "MG"
  },
  "cabanas|mariana|mg": {
    "display_name": "Cabanas, Mariana, Região Geográfica Imediata de Santa Bárbara - Ouro Preto, Região Geográfica Intermediária de Belo Horizonte, Minas Gerais, 35426-262, Brasil",
    "lat": -20.3974004,
    "lng": -43.417722,
    "query": "CABANAS, MARIANA, Minas Gerais, Brasil",
    "source": "neighborhood",
    "status": "ok",
    "uf": "MG"
  },
  "cachoeira do campo|ouro preto|mg": {
    "display_name": "Cachoeira do Campo, Ouro Preto, Região Geográfica Imediata de Santa Bárbara - Ouro Preto, Região Geográfica Intermediária de Belo Horizonte, Minas Gerais, Brasil",
    "lat": -20.3681039,
    "lng": -43.6532538,
    "query": "Cachoeira do Campo, OURO PRETO, Minas Gerais, Brasil",
    "source": "neighborhood",
    "status": "ok",
    "uf": "MG"
  },
  "cachoeirinha|belo horizonte|mg": {
    "display_name": "Cachoeirinha, Regional Nordeste, Belo Horizonte, Região Geográfica Imediata de Belo Horizonte, Região Metropolitana de Belo Horizonte, Região Geográfica Intermediária de Belo Horizonte, Minas Gerais, Brasil",
    "lat": -19.8902003,
    "lng": -43.9474556,
    "query": "CACHOEIRINHA, BELO HORIZONTE, Minas Gerais, Brasil",
    "source": "neighborhood",
    "status": "ok",
    "uf": "MG"
  },
  "caiçaras|belo horizonte|mg": {
    "display_name": "Caiçaras, Regional Noroeste, Belo Horizonte, Região Geográfica Imediata de Belo Horizonte, Região Metropolitana de Belo Horizonte, Região Geográfica Intermediária de Belo Horizonte, Minas Gerais, Brasil",
    "lat": -19.8997005,
    "lng": -43.9652556,
    "query": "CAIÇARAS, BELO HORIZONTE, Minas Gerais, Brasil",
    "source": "neighborhood",
    "status": "ok",
    "uf": "MG"
  },
  "calafate|belo horizonte|mg": {
    "display_name": "Calafate, 120, Rua Extrema, Calafate, Regional Oeste, Belo Horizonte, Região Geográfica Imediata de Belo Horizonte, Região Metropolitana de Belo Horizonte, Região Geográfica Intermediária de Belo Horizonte, Minas Gerais, 30411-320, Brasil",
    "lat": -19.9223355,
    "lng": -43.9702945,
    "query": "CALAFATE, BELO HORIZONTE, Minas Gerais, Brasil",
    "source": "neighborhood",
    "status": "ok",
    "uf": "MG"
  },
  "camargos|belo horizonte|mg": {
    "display_name": "Camargos, Regional Oeste, Belo Horizonte, Região Geográfica Imediata de Belo Horizonte, Região Metropolitana de Belo Horizonte, Região Geográfica Intermediária de Belo Horizonte, Minas Gerais, 30520-000, Brasil",
    "lat": -19.9400693,
    "lng": -44.018565,
    "query": "CAMARGOS, Belo Horizonte, Minas Gerais, Brasil",
    "source": "neighborhood",
    "status": "ok",
    "uf": "MG"
  },
  "campo santana|prudente de morais|mg": {
    "display_name": "Prudente de Morais, Região Geográfica Imediata de Sete Lagoas, Região Geográfica Intermediária de Belo Horizonte, Minas Gerais, 35715-000, Brasil",
    "lat": -19.4825,
    "lng": -44.155556,
    "query": "PRUDENTE DE MORAIS, Minas Gerais, Brasil",
    "source": "city",
    "status": "ok",
    "uf": "MG"
  },
  "campos eliseos|betim|mg": {
    "display_name": "Campos Elíseos, Regional PTB, Betim, Região Geográfica Imediata de Belo Horizonte, Região Metropolitana de Belo Horizonte, Região Geográfica Intermediária de Belo Horizonte, Minas Gerais, Região Sudeste, Brasil",
    "lat": -19.9800258,
    "lng": -44.1434254,
    "query": "CAMPOS ELISEOS, BETIM, Minas Gerais, Brasil",
    "source": "neighborhood",
    "status": "ok",
    "uf": "MG"
  },
  "campos elíseos|capinópolis|mg": {
    "display_name": "Córrego Campos Eliseos, Capinópolis, Região Geográfica Imediata de Ituiutaba, Região Geográfica Intermediária de Uberlândia, Minas Gerais, 38360-000, Brasil",
    "lat": -18.6914173,
    "lng": -49.5585142,
    "query": "CAMPOS ELÍSEOS, CAPINÓPOLIS, Minas Gerais, Brasil",
    "source": "neighborhood",
    "status": "ok",
    "uf": "MG"
  },
  "canaã|sete lagoas|mg": {
    "display_name": "Praça Martiniano de Carvalho, Santo Antônio, Sete Lagoas, Região Geográfica Imediata de Sete Lagoas, Região Geográfica Intermediária de Belo Horizonte, Minas Gerais, Brasil",
    "lat": -19.4651466,
    "lng": -44.2527736,
    "query": "CANAÃ, SETE LAGOAS, Minas Gerais, Brasil",
    "source": "neighborhood",
    "status": "ok",
    "uf": "MG"
  },
  "canjeranus|passos|mg": {
    "display_name": "Canjeranus, Passos, Região Geográfica Imediata de Passos, Região Geográfica Intermediária de Varginha, Minas Gerais, Brasil",
    "lat": -20.713,
    "lng": -46.6061867,
    "query": "CANJERANUS, PASSOS, Minas Gerais, Brasil",
    "source": "neighborhood",
    "status": "ok",
    "uf": "MG"
  },
  "carlos chagas|juiz de fora|mg": {
    "display_name": "Carlos Chagas, Juiz de Fora, Região Geográfica Imediata de Juiz de Fora, Região Geográfica Intermediária de Juiz de Fora, Minas Gerais, Brasil",
    "lat": -21.744351,
    "lng": -43.3908675,
    "query": "Carlos Chagas, JUIZ DE FORA, Minas Gerais, Brasil",
    "source": "neighborhood",
    "status": "ok",
    "uf": "MG"
  },
  "carmo|monte carmelo|mg": {
    "display_name": "Rua Nossa Senhora do Carmo, Lambari, Monte Carmelo, Região Geográfica Imediata de Monte Carmelo, Região Geográfica Intermediária de Uberlândia, Minas Gerais, Brasil",
    "lat": -18.7012691,
    "lng": -47.4971696,
    "query": "CARMO, MONTE CARMELO, Minas Gerais, Brasil",
    "source": "neighborhood",
    "status": "ok",
    "uf": "MG"
  },
  "carneirinhos|joão monlevade|mg": {
    "display_name": "Carneirinhos, João Monlevade, Região Geográfica Imediata de João Monlevade, Região Geográfica Intermediária de Ipatinga, Minas Gerais, 35930-480, Brasil",
    "lat": -19.8091418,
    "lng": -43.1722246,
    "query": "CARNEIRINHOS, JOÃO MONLEVADE, Minas Gerais, Brasil",
    "source": "neighborhood",
    "status": "ok",
    "uf": "MG"
  },
  "carreira comprida|santa luzia|mg": {
    "display_name": "Estação Carreira Comprida, Avenida Doutor Ângelo Teixeira da Costa, Nova Esperança (Pantanal), Santa Luzia, Região Geográfica Imediata de Belo Horizonte, Região Metropolitana de Belo Horizonte, Região Geográfica Intermediária de Belo Horizonte, Minas Gerais, 33045-090, Brasil",
    "lat": -19.7542215,
    "lng": -43.8794812,
    "query": "CARREIRA COMPRIDA, SANTA LUZIA, Minas Gerais, Brasil",
    "source": "neighborhood",
    "status": "ok",
    "uf": "MG"
  },
  "cel olinto vieira|padre paraíso|mg": {
    "display_name": "Rua Coronel Olinto Vieira, Padre Paraíso, Região Geográfica Imediata de Teófilo Otoni, Região Geográfica Intermediária de Teófilo Otoni, Minas Gerais, Brasil",
    "lat": -17.0752361,
    "lng": -41.4847108,
    "query": "CEL OLINTO VIEIRA, PADRE PARAÍSO, Minas Gerais, Brasil",
    "source": "neighborhood",
    "status": "ok",
    "uf": "MG"
  },
  "centro comunitário rio verde|jaiba|mg": {
    "display_name": "Jaíba, Região Geográfica Imediata de Janaúba, Região Geográfica Intermediária de Montes Claros, Minas Gerais, 39508-000, Brasil",
    "lat": -15.3373744,
    "lng": -43.6734439,
    "query": "Jaiba, Minas Gerais, Brasil",
    "source": "city",
    "status": "ok",
    "uf": "MG"
  },
  "centro guaranilândia|jequitinhonha|mg": {
    "display_name": "Escola Estadual Coronel João da Cunha, 179, Rua João Alves Cardoso, Guaranilândia, Jequitinhonha, Região Geográfica Imediata de Almenara, Região Geográfica Intermediária de Teófilo Otoni, Minas Gerais, 39965-000, Brasil",
    "lat": -16.299266,
    "lng": -40.8058054,
    "query": "RUA JOÃO ALVES CARDOSO, 179, CENTRO GUARANILÂNDIA, JEQUITINHONHA, Minas Gerais, Brasil",
    "source": "address",
    "status": "ok",
    "uf": "MG"
  },
  "centro norte|timóteo|mg": {
    "display_name": "Centro, Timóteo, Região Geográfica Imediata de Ipatinga, Região Metropolitana do Vale do Aço, Região Geográfica Intermediária de Ipatinga, Minas Gerais, Brasil",
    "lat": -19.5385873,
    "lng": -42.647368,
    "query": "Centro Norte, TIMÓTEO, Minas Gerais, Brasil",
    "source": "neighborhood",
    "status": "ok",
    "uf": "MG"
  },
  "centro-distrito: itapanhoacanga|alvorada de minas|mg": {
    "display_name": "Alvorada de Minas, Região Geográfica Imediata de Diamantina, Região Geográfica Intermediária de Teófilo Otoni, Minas Gerais, 39140-000, Brasil",
    "lat": -18.7318587,
    "lng": -43.3641479,
    "query": "ALVORADA DE MINAS, Minas Gerais, Brasil",
    "source": "city",
    "status": "ok",
    "uf": "MG"
  },
  "centro.|divinópolis|mg": {
    "display_name": "Centro, Santo Antônio dos Campos, Divinópolis, Região Geográfica Imediata de Divinópolis, Região Geográfica Intermediária de Divinópolis, Minas Gerais, Brasil",
    "lat": -20.1059298,
    "lng": -44.9741266,
    "query": "CENTRO., Divinópolis, Minas Gerais, Brasil",
    "source": "neighborhood",
    "status": "ok",
    "uf": "MG"
  },
  "centro|albertina|mg": {
    "display_name": "Conglomerado de Praças / Praça do Centro, Albertina, Conselheiro Lafaiete, Região Geográfica Imediata de Conselheiro Lafaiete, Região Geográfica Intermediária de Juiz de Fora, Minas Gerais, Brasil",
    "lat": -20.6608289,
    "lng": -43.7866204,
    "query": "CENTRO, ALBERTINA, Minas Gerais, Brasil",
    "source": "neighborhood",
    "status": "ok",
    "uf": "MG"
  },
  "centro|alfenas|mg": {
    "display_name": "Centro, Alfenas, Região Geográfica Imediata de Alfenas, Região Geográfica Intermediária de Varginha, Minas Gerais, Brasil",
    "lat": -21.4258056,
    "lng": -45.9473348,
    "query": "CENTRO, ALFENAS, Minas Gerais, Brasil",
    "source": "neighborhood",
    "status": "ok",
    "uf": "MG"
  },
  "centro|almenara|mg": {
    "display_name": "CenterMed, 37, Avenida Olindo de Miranda, Almenara, Região Geográfica Imediata de Almenara, Região Geográfica Intermediária de Teófilo Otoni, Minas Gerais, 39900-000, Brasil",
    "lat": -16.1736595,
    "lng": -40.6920941,
    "query": "CENTRO, ALMENARA, Minas Gerais, Brasil",
    "source": "neighborhood",
    "status": "ok",
    "uf": "MG"
  },
  "centro|alpercata|mg": {
    "display_name": "Alpercata, Região Geográfica Imediata de Governador Valadares, Região Geográfica Intermediária de Governador Valadares, Minas Gerais, Região Sudeste, Brasil",
    "lat": -18.993343,
    "lng": -41.9894704,
    "query": "ALPERCATA, Minas Gerais, Brasil",
    "source": "city",
    "status": "ok",
    "uf": "MG"
  },
  "centro|alterosa|mg": {
    "display_name": "Banco do Brasil, 364, Praça Benedito Valadares, Alterosa, Região Geográfica Imediata de Alfenas, Região Geográfica Intermediária de Varginha, Minas Gerais, 37145-000, Brasil",
    "lat": -21.2530871,
    "lng": -46.1437541,
    "query": "CENTRO, ALTEROSA, Minas Gerais, Brasil",
    "source": "neighborhood",
    "status": "ok",
    "uf": "MG"
  },
  "centro|alto caparaó|mg": {
    "display_name": "Alto Caparaó, Região Geográfica Imediata de Manhuaçu, Região Geográfica Intermediária de Juiz de Fora, Minas Gerais, 36979-000, Brasil",
    "lat": -20.4405661,
    "lng": -41.8683799,
    "query": "ALTO CAPARAÓ, Minas Gerais, Brasil",
    "source": "city",
    "status": "ok",
    "uf": "MG"
  },
  "centro|alto rio doce|mg": {
    "display_name": "Alto Rio Doce, Região Geográfica Imediata de Barbacena, Região Geográfica Intermediária de Juiz de Fora, Minas Gerais, 36260-000, Brasil",
    "lat": -21.0239537,
    "lng": -43.4133507,
    "query": "ALTO RIO DOCE, Minas Gerais, Brasil",
    "source": "city",
    "status": "ok",
    "uf": "MG"
  },
  "centro|andradas|mg": {
    "display_name": "Centro, Andradas, Região Geográfica Imediata de Poços de Caldas, Região Geográfica Intermediária de Pouso Alegre, Minas Gerais, 37795-000, Brasil",
    "lat": -22.0686758,
    "lng": -46.5707553,
    "query": "CENTRO, ANDRADAS, Minas Gerais, Brasil",
    "source": "neighborhood",
    "status": "ok",
    "uf": "MG"
  },
  "centro|angelândia|mg": {
    "display_name": "Angelândia, Região Geográfica Imediata de Capelinha, Região Geográfica Intermediária de Teófilo Otoni, Minas Gerais, 39685-000, Brasil",
    "lat": -17.7253,
    "lng": -42.2728,
    "query": "ANGELÂNDIA, Minas Gerais, Brasil",
    "source": "city",
    "status": "ok",
    "uf": "MG"
  },
  "centro|antônio dias|mg": {
    "display_name": "Novo Centro, Antônio Dias, Região Geográfica Imediata de Ipatinga, Região Geográfica Intermediária de Ipatinga, Minas Gerais, Região Sudeste, 35177-000, Brasil",
    "lat": -19.6151373,
    "lng": -42.8483477,
    "query": "CENTRO, ANTÔNIO DIAS, Minas Gerais, Brasil",
    "source": "neighborhood",
    "status": "ok",
    "uf": "MG"
  },
  "centro|antônio prado de minas|mg": {
    "display_name": "Antônio Prado de Minas, Região Geográfica Imediata de Muriaé, Região Geográfica Intermediária de Juiz de Fora, Minas Gerais, Brasil",
    "lat": -21.0171988,
    "lng": -42.1101106,
    "query": "ANTÔNIO PRADO DE MINAS, Minas Gerais, Brasil",
    "source": "city",
    "status": "ok",
    "uf": "MG"
  },
  "centro|araguari|mg": {
    "display_name": "Centro, Araguari, Região Geográfica Imediata de Uberlândia, Região Geográfica Intermediária de Uberlândia, Minas Gerais, Brasil",
    "lat": -18.6545756,
    "lng": -48.1950932,
    "query": "CENTRO, ARAGUARI, Minas Gerais, Brasil",
    "source": "neighborhood",
    "status": "ok",
    "uf": "MG"
  },
  "centro|araponga|mg": {
    "display_name": "Centro de Pesquisa, MGC-482;BR-482, Bom Jesus do Madeira, Araponga, Região Geográfica Imediata de Viçosa, Região Geográfica Intermediária de Juiz de Fora, Minas Gerais, Brasil",
    "lat": -20.7210347,
    "lng": -42.4795448,
    "query": "CENTRO, ARAPONGA, Minas Gerais, Brasil",
    "source": "neighborhood",
    "status": "ok",
    "uf": "MG"
  },
  "centro|arcos|mg": {
    "display_name": "Centro, Arcos, Região Geográfica Imediata de Formiga, Região Geográfica Intermediária de Divinópolis, Minas Gerais, 35588-000, Brasil",
    "lat": -20.2850948,
    "lng": -45.5401169,
    "query": "CENTRO, ARCOS, Minas Gerais, Brasil",
    "source": "neighborhood",
    "status": "ok",
    "uf": "MG"
  },
  "centro|aricanduva|mg": {
    "display_name": "Aricanduva, Região Geográfica Imediata de Capelinha, Região Geográfica Intermediária de Teófilo Otoni, Minas Gerais, 39678-000, Brasil",
    "lat": -17.8678,
    "lng": -42.5569,
    "query": "ARICANDUVA, Minas Gerais, Brasil",
    "source": "city",
    "status": "ok",
    "uf": "MG"
  },
  "centro|ataléia|mg": {
    "display_name": "Centro, Ataléia, Região Geográfica Imediata de Teófilo Otoni, Região Geográfica Intermediária de Teófilo Otoni, Minas Gerais, 39850-000, Brasil",
    "lat": -18.0431962,
    "lng": -41.1106467,
    "query": "CENTRO, ATALÉIA, Minas Gerais, Brasil",
    "source": "neighborhood",
    "status": "ok",
    "uf": "MG"
  },
  "centro|bandeira|mg": {
    "display_name": "Banco do Brasil, 138, Praça da Bandeira, Espera Feliz, Região Geográfica Imediata de Carangola, Região Geográfica Intermediária de Juiz de Fora, Minas Gerais, Região Sudeste, 36830-000, Brasil",
    "lat": -20.6476008,
    "lng": -41.9093759,
    "query": "CENTRO, BANDEIRA, Minas Gerais, Brasil",
    "source": "neighborhood",
    "status": "ok",
    "uf": "MG"
  },
  "centro|barão de cocais|mg": {
    "display_name": "Centro, Barão de Cocais, Região Geográfica Imediata de Santa Bárbara - Ouro Preto, Região Geográfica Intermediária de Belo Horizonte, Minas Gerais, 35970-000, Brasil",
    "lat": -19.9413808,
    "lng": -43.4805823,
    "query": "CENTRO, BARÃO DE COCAIS, Minas Gerais, Brasil",
    "source": "neighborhood",
    "status": "ok",
    "uf": "MG"
  },
  "centro|belmiro braga|mg": {
    "display_name": "Belmiro Braga, Região Geográfica Imediata de Juiz de Fora, Região Geográfica Intermediária de Juiz de Fora, Minas Gerais, Brasil",
    "lat": -21.9486291,
    "lng": -43.413564,
    "query": "BELMIRO BRAGA, Minas Gerais, Brasil",
    "source": "city",
    "status": "ok",
    "uf": "MG"
  },
  "centro|belo horizonte|mg": {
    "display_name": "Centro, Regional Centro-Sul, Belo Horizonte, Região Geográfica Imediata de Belo Horizonte, Região Metropolitana de Belo Horizonte, Região Geográfica Intermediária de Belo Horizonte, Minas Gerais, Brasil",
    "lat": -19.9193308,
    "lng": -43.9403488,
    "query": "CENTRO, BELO HORIZONTE, Minas Gerais, Brasil",
    "source": "neighborhood",
    "status": "ok",
    "uf": "MG"
  },
  "centro|bocaiúva|mg": {
    "display_name": "Centro, Bocaiuva, Região Geográfica Imediata de Montes Claros, Região Geográfica Intermediária de Montes Claros, Minas Gerais, Brasil",
    "lat": -17.1154479,
    "lng": -43.8103318,
    "query": "CENTRO, BOCAIÚVA, Minas Gerais, Brasil",
    "source": "neighborhood",
    "status": "ok",
    "uf": "MG"
  },
  "centro|bom despacho|mg": {
    "display_name": "Centro, Bom Despacho, Região Geográfica Imediata de Dores do Indaiá, Região Geográfica Intermediária de Divinópolis, Minas Gerais, 35630-072, Brasil",
    "lat": -19.7371681,
    "lng": -45.251881,
    "query": "CENTRO, BOM DESPACHO, Minas Gerais, Brasil",
    "source": "neighborhood",
    "status": "ok",
    "uf": "MG"
  },
  "centro|bom jesus do galho|mg": {
    "display_name": "Bom Jesus do Galho, Região Geográfica Imediata de Caratinga, Região Geográfica Intermediária de Ipatinga, Minas Gerais, Região Sudeste, 35340-000, Brasil",
    "lat": -19.8283191,
    "lng": -42.3162256,
    "query": "BOM JESUS DO GALHO, Minas Gerais, Brasil",
    "source": "city",
    "status": "ok",
    "uf": "MG"
  },
  "centro|bras pires|mg": {
    "display_name": "Brás Pires, Região Geográfica Imediata de Ubá, Região Geográfica Intermediária de Juiz de Fora, Minas Gerais, 36542-000, Brasil",
    "lat": -20.8483109,
    "lng": -43.2430524,
    "query": "BRAS PIRES, Minas Gerais, Brasil",
    "source": "city",
    "status": "ok",
    "uf": "MG"
  },
  "centro|cachoeira de pajeú|mg": {
    "display_name": "Centro de Referência em Assistência Social, 16, Rua José Reis, Cachoeira de Pajeú, Região Geográfica Imediata de Pedra Azul, Região Geográfica Intermediária de Teófilo Otoni, Minas Gerais, 39980-000, Brasil",
    "lat": -15.9661692,
    "lng": -41.4974289,
    "query": "CENTRO, CACHOEIRA DE PAJEÚ, Minas Gerais, Brasil",
    "source": "neighborhood",
    "status": "ok",
    "uf": "MG"
  },
  "centro|cambuí|mg": {
    "display_name": "Centro, Cambuí, Região Geográfica Imediata de Pouso Alegre, Região Geográfica Intermediária de Pouso Alegre, Minas Gerais, Brasil",
    "lat": -22.6118716,
    "lng": -46.0582924,
    "query": "CENTRO, CAMBUÍ, Minas Gerais, Brasil",
    "source": "neighborhood",
    "status": "ok",
    "uf": "MG"
  },
  "centro|campanha|mg": {
    "display_name": "Campanha, Região Geográfica Imediata de Três Corações, Região Geográfica Intermediária de Varginha, Minas Gerais, 37400-000, Brasil",
    "lat": -21.8361108,
    "lng": -45.401986,
    "query": "CAMPANHA, Minas Gerais, Brasil",
    "source": "city",
    "status": "ok",
    "uf": "MG"
  },
  "centro|cana verde|mg": {
    "display_name": "Cana Verde, Região Geográfica Imediata de Lavras, Região Geográfica Intermediária de Varginha, Minas Gerais, Região Sudeste, 37267-000, Brasil",
    "lat": -21.021308,
    "lng": -45.1817881,
    "query": "CANA VERDE, Minas Gerais, Brasil",
    "source": "city",
    "status": "ok",
    "uf": "MG"
  },
  "centro|candeias|mg": {
    "display_name": "Escola Estadual Padre Américo, 261, Rua João Caetano de Faria, Candeias, Região Geográfica Imediata de Campo Belo, Região Geográfica Intermediária de Varginha, Minas Gerais, 37280-000, Brasil",
    "lat": -20.7675554,
    "lng": -45.2747374,
    "query": "R JOÃO CAETANO DE FARIA, 261, CENTRO, CANDEIAS, Minas Gerais, Brasil",
    "source": "address",
    "status": "ok",
    "uf": "MG"
  },
  "centro|caparaó|mg": {
    "display_name": "Coreto do Centro da Cidade de Caparaó, Avenida Américo Vespúcio de Carvalho, Caparaó, Região Geográfica Imediata de Manhuaçu, Região Geográfica Intermediária de Juiz de Fora, Minas Gerais, 36834-000, Brasil",
    "lat": -20.5244179,
    "lng": -41.9057938,
    "query": "CENTRO, CAPARAÓ, Minas Gerais, Brasil",
    "source": "neighborhood",
    "status": "ok",
    "uf": "MG"
  },
  "centro|capelinha|mg": {
    "display_name": "Centro, Capelinha, Região Geográfica Imediata de Capelinha, Região Geográfica Intermediária de Teófilo Otoni, Minas Gerais, 39680-000, Brasil",
    "lat": -17.6929072,
    "lng": -42.5165749,
    "query": "CENTRO, CAPELINHA, Minas Gerais, Brasil",
    "source": "neighborhood",
    "status": "ok",
    "uf": "MG"
  },
  "centro|carangola|mg": {
    "display_name": "Centro Municipal de Educação Lelena de Oliveira, Praça Governador Valadares, Carangola, Região Geográfica Imediata de Carangola, Região Geográfica Intermediária de Juiz de Fora, Minas Gerais, Região Sudeste, 36800-000, Brasil",
    "lat": -20.7301996,
    "lng": -42.034902,
    "query": "CENTRO, CARANGOLA, Minas Gerais, Brasil",
    "source": "neighborhood",
    "status": "ok",
    "uf": "MG"
  },
  "centro|caratinga|mg": {
    "display_name": "Centro, Morro do Escorpião, Caratinga, Região Geográfica Imediata de Caratinga, Região Geográfica Intermediária de Ipatinga, Minas Gerais, Brasil",
    "lat": -19.7884503,
    "lng": -42.1410227,
    "query": "Centro, CARATINGA, Minas Gerais, Brasil",
    "source": "neighborhood",
    "status": "ok",
    "uf": "MG"
  },
  "centro|careaçu|mg": {
    "display_name": "Careaçu, Região Geográfica Imediata de Pouso Alegre, Região Geográfica Intermediária de Pouso Alegre, Minas Gerais, Brasil",
    "lat": -22.0434124,
    "lng": -45.6995247,
    "query": "CAREAÇU, Minas Gerais, Brasil",
    "source": "city",
    "status": "ok",
    "uf": "MG"
  },
  "centro|carlos chagas|mg": {
    "display_name": "Carlos Chagas, Região Geográfica Imediata de Teófilo Otoni, Região Geográfica Intermediária de Teófilo Otoni, Minas Gerais, 39864-000, Brasil",
    "lat": -17.7030797,
    "lng": -40.7632936,
    "query": "CARLOS CHAGAS, Minas Gerais, Brasil",
    "source": "city",
    "status": "ok",
    "uf": "MG"
  },
  "centro|carrancas|mg": {
    "display_name": "Centro de Saúde Doutor Manoel Moreira da S. Junior, Rua Coronel Antônio Francisco, Carrancas, Região Geográfica Imediata de Lavras, Região Geográfica Intermediária de Varginha, Minas Gerais, Brasil",
    "lat": -21.4880499,
    "lng": -44.6446469,
    "query": "CENTRO, CARRANCAS, Minas Gerais, Brasil",
    "source": "neighborhood",
    "status": "ok",
    "uf": "MG"
  },
  "centro|cataguases|mg": {
    "display_name": "Centro, Sereno, Cataguases, Região Geográfica Imediata de Cataguases, Região Geográfica Intermediária de Juiz de Fora, Minas Gerais, 36774-794, Brasil",
    "lat": -21.3146438,
    "lng": -42.649194,
    "query": "CENTRO, CATAGUASES, Minas Gerais, Brasil",
    "source": "neighborhood",
    "status": "ok",
    "uf": "MG"
  },
  "centro|confins|mg": {
    "display_name": "Centro, Loteamento Raimunda Valadares, Confins, Região Geográfica Imediata de Belo Horizonte, Região Metropolitana de Belo Horizonte, Região Geográfica Intermediária de Belo Horizonte, Minas Gerais, Brasil",
    "lat": -19.6265766,
    "lng": -43.9905899,
    "query": "CENTRO, CONFINS, Minas Gerais, Brasil",
    "source": "neighborhood",
    "status": "ok",
    "uf": "MG"
  },
  "centro|congonhal|mg": {
    "display_name": "Centro de Especialidades Telma Ieiri de Oliveira, Rua Coronel Evaristo Silva, Congonhal, Região Geográfica Imediata de Pouso Alegre, Região Geográfica Intermediária de Pouso Alegre, Minas Gerais, 37584-000, Brasil",
    "lat": -22.1542001,
    "lng": -46.0402888,
    "query": "Centro, Congonhal, Minas Gerais, Brasil",
    "source": "neighborhood",
    "status": "ok",
    "uf": "MG"
  },
  "centro|corinto|mg": {
    "display_name": "Hotel Brasil Palace, 70, Rua Vereador Corinto Pereira de Castro, Raquel, Salinas, Região Geográfica Imediata de Salinas, Região Geográfica Intermediária de Montes Claros, Minas Gerais, 39560-000, Brasil",
    "lat": -16.1662963,
    "lng": -42.2959191,
    "query": "Centro, CORINTO, Minas Gerais, Brasil",
    "source": "neighborhood",
    "status": "ok",
    "uf": "MG"
  },
  "centro|coromandel|mg": {
    "display_name": "Banco do Brasil, 137, Rua Aurélio Rosa, Vale do Sol, Coromandel, Região Geográfica Imediata de Patrocínio, Região Geográfica Intermediária de Patos de Minas, Minas Gerais, 38550-000, Brasil",
    "lat": -18.4717223,
    "lng": -47.2025935,
    "query": "CENTRO, COROMANDEL, Minas Gerais, Brasil",
    "source": "neighborhood",
    "status": "ok",
    "uf": "MG"
  },
  "centro|couto de magalhães de minas|mg": {
    "display_name": "Escola Estadual Tancredo de Almeida Neves, 273, Avenida Diamantina, Couto de Magalhães de Minas, Região Geográfica Imediata de Diamantina, Região Geográfica Intermediária de Teófilo Otoni, Minas Gerais, Brasil",
    "lat": -18.0758582,
    "lng": -43.4731163,
    "query": "AV DIAMANTINA, 273, CENTRO, COUTO DE MAGALHÃES DE MINAS, Minas Gerais, Brasil",
    "source": "address",
    "status": "ok",
    "uf": "MG"
  },
  "centro|curvelo|mg": {
    "display_name": "Centro, Curvelo, Região Geográfica Imediata de Curvelo, Região Geográfica Intermediária de Belo Horizonte, Minas Gerais, Região Sudeste, 35790-246, Brasil",
    "lat": -18.755044,
    "lng": -44.4288182,
    "query": "CENTRO, CURVELO, Minas Gerais, Brasil",
    "source": "neighborhood",
    "status": "ok",
    "uf": "MG"
  },
  "centro|cônego marinho|mg": {
    "display_name": "Cônego Marinho, Região Geográfica Imediata de Januária, Região Geográfica Intermediária de Montes Claros, Minas Gerais, Brasil",
    "lat": -15.2974056,
    "lng": -44.4140513,
    "query": "CÔNEGO MARINHO, Minas Gerais, Brasil",
    "source": "city",
    "status": "ok",
    "uf": "MG"
  },
  "centro|delfinópolis|mg": {
    "display_name": "Delfinópolis, Região Geográfica Imediata de Passos, Região Geográfica Intermediária de Varginha, Minas Gerais, 37910-000, Brasil",
    "lat": -20.344749,
    "lng": -46.8546425,
    "query": "DELFINÓPOLIS, Minas Gerais, Brasil",
    "source": "city",
    "status": "ok",
    "uf": "MG"
  },
  "centro|diamantina|mg": {
    "display_name": "Centro de Apoio Comunitário, Diamantina, Região Geográfica Imediata de Diamantina, Região Geográfica Intermediária de Teófilo Otoni, Minas Gerais, Brasil",
    "lat": -18.2005672,
    "lng": -43.5772999,
    "query": "CENTRO, DIAMANTINA, Minas Gerais, Brasil",
    "source": "neighborhood",
    "status": "ok",
    "uf": "MG"
  },
  "centro|diogo de vasconcelos|mg": {
    "display_name": "Centro de Convenções e Parque Metalúrgico Augusto Barbosa, Rua Diogo de Vasconcelos, Vila Aparecida, Ouro Preto, Região Geográfica Imediata de Santa Bárbara - Ouro Preto, Região Geográfica Intermediária de Belo Horizonte, Minas Gerais, 35400-000, Brasil",
    "lat": -20.3892064,
    "lng": -43.5068831,
    "query": "Centro, DIOGO DE VASCONCELOS, Minas Gerais, Brasil",
    "source": "neighborhood",
    "status": "ok",
    "uf": "MG"
  },
  "centro|divinésia|mg": {
    "display_name": "Divinésia, Região Geográfica Imediata de Ubá, Região Geográfica Intermediária de Juiz de Fora, Minas Gerais, 36546-000, Brasil",
    "lat": -20.990277,
    "lng": -43.003889,
    "query": "Divinésia, Minas Gerais, Brasil",
    "source": "city",
    "status": "ok",
    "uf": "MG"
  },
  "centro|divinópolis|mg": {
    "display_name": "Centro, Santo Antônio dos Campos, Divinópolis, Região Geográfica Imediata de Divinópolis, Região Geográfica Intermediária de Divinópolis, Minas Gerais, Brasil",
    "lat": -20.1059298,
    "lng": -44.9741266,
    "query": "CENTRO, DIVINÓPOLIS, Minas Gerais, Brasil",
    "source": "neighborhood",
    "status": "ok",
    "uf": "MG"
  },
  "centro|divisa alegre|mg": {
    "display_name": "Centro, Divisa Alegre, Região Geográfica Imediata de Pedra Azul, Região Geográfica Intermediária de Teófilo Otoni, Minas Gerais, 39995-000, Brasil",
    "lat": -15.7220119,
    "lng": -41.3430214,
    "query": "CENTRO, DIVISA ALEGRE, Minas Gerais, Brasil",
    "source": "neighborhood",
    "status": "ok",
    "uf": "MG"
  },
  "centro|divisópolis|mg": {
    "display_name": "Divisópolis, Região Geográfica Imediata de Pedra Azul, Região Geográfica Intermediária de Teófilo Otoni, Minas Gerais, Região Sudeste, 39912-000, Brasil",
    "lat": -15.7216545,
    "lng": -41.0032019,
    "query": "DIVISÓPOLIS, Minas Gerais, Brasil",
    "source": "city",
    "status": "ok",
    "uf": "MG"
  },
  "centro|estiva|mg": {
    "display_name": "Acesso ao Centro Administrativo, Nossa Senhora da Agonia, Itajubá, Região Geográfica Imediata de Itajubá, Região Geográfica Intermediária de Pouso Alegre, Minas Gerais, 37500-224, Brasil",
    "lat": -22.4147278,
    "lng": -45.4382569,
    "query": "CENTRO, ESTIVA, Minas Gerais, Brasil",
    "source": "neighborhood",
    "status": "ok",
    "uf": "MG"
  },
  "centro|felisburgo|mg": {
    "display_name": "Centro Municipal de Educação Infantil Maira Maria de Souza e Souza, 231, Rua Minas Gerais, Felisburgo, Região Geográfica Imediata de Almenara, Região Geográfica Intermediária de Teófilo Otoni, Minas Gerais, 39895-000, Brasil",
    "lat": -16.6425397,
    "lng": -40.7579126,
    "query": "CENTRO, FELISBURGO, Minas Gerais, Brasil",
    "source": "neighborhood",
    "status": "ok",
    "uf": "MG"
  },
  "centro|fervedouro|mg": {
    "display_name": "Centro de Pesquisa, MGC-482;BR-482, Bom Jesus do Madeira, Araponga, Região Geográfica Imediata de Viçosa, Região Geográfica Intermediária de Juiz de Fora, Minas Gerais, Brasil",
    "lat": -20.7210347,
    "lng": -42.4795448,
    "query": "CENTRO, FERVEDOURO, Minas Gerais, Brasil",
    "source": "neighborhood",
    "status": "ok",
    "uf": "MG"
  },
  "centro|formiga|mg": {
    "display_name": "Centro, Bambuí, Região Geográfica Imediata de Formiga, Região Geográfica Intermediária de Divinópolis, Minas Gerais, Brasil",
    "lat": -20.0125548,
    "lng": -45.9780467,
    "query": "CENTRO, FORMIGA, Minas Gerais, Brasil",
    "source": "neighborhood",
    "status": "ok",
    "uf": "MG"
  },
  "centro|formoso|mg": {
    "display_name": "Formoso, Região Geográfica Imediata de Unaí, Região Geográfica Intermediária de Patos de Minas, Minas Gerais, Brasil",
    "lat": -14.9513078,
    "lng": -46.234247,
    "query": "FORMOSO, Minas Gerais, Brasil",
    "source": "city",
    "status": "ok",
    "uf": "MG"
  },
  "centro|francisco dumont|mg": {
    "display_name": "Centro, Francisco Dumont, Região Geográfica Imediata de Montes Claros, Região Geográfica Intermediária de Montes Claros, Minas Gerais, 39387-000, Brasil",
    "lat": -17.3142684,
    "lng": -44.2315171,
    "query": "CENTRO, FRANCISCO DUMONT, Minas Gerais, Brasil",
    "source": "neighborhood",
    "status": "ok",
    "uf": "MG"
  },
  "centro|gameleiras|mg": {
    "display_name": "Centro Espírita Dr. Henrique Krügger, 66, Rua Estanho, Leblon, Uberaba, Região Geográfica Imediata de Uberaba, Região Geográfica Intermediária de Uberaba, Minas Gerais, 38030-100, Brasil",
    "lat": -19.7663031,
    "lng": -47.9308827,
    "query": "CENTRO, GAMELEIRAS, Minas Gerais, Brasil",
    "source": "neighborhood",
    "status": "ok",
    "uf": "MG"
  },
  "centro|glaucilândia|mg": {
    "display_name": "Glaucilândia, Região Geográfica Imediata de Montes Claros, Região Geográfica Intermediária de Montes Claros, Minas Gerais, Brasil",
    "lat": -16.8497,
    "lng": -43.6972,
    "query": "GLAUCILÂNDIA, Minas Gerais, Brasil",
    "source": "city",
    "status": "ok",
    "uf": "MG"
  },
  "centro|gouveia|mg": {
    "display_name": "Centro Municipal de Educação Abelhinha, 200, Rua Alcides Gouveia, Joaíma, Região Geográfica Imediata de Almenara, Região Geográfica Intermediária de Teófilo Otoni, Minas Gerais, 39890-000, Brasil",
    "lat": -16.6531661,
    "lng": -41.0274334,
    "query": "CENTRO, GOUVEIA, Minas Gerais, Brasil",
    "source": "neighborhood",
    "status": "ok",
    "uf": "MG"
  },
  "centro|guanhães|mg": {
    "display_name": "Centro de Formação de Condutores, Guanhães, Região Geográfica Imediata de Guanhães, Região Geográfica Intermediária de Governador Valadares, Minas Gerais, Brasil",
    "lat": -18.7590308,
    "lng": -42.9465635,
    "query": "CENTRO, GUANHÃES, Minas Gerais, Brasil",
    "source": "neighborhood",
    "status": "ok",
    "uf": "MG"
  },
  "centro|guarani|mg": {
    "display_name": "Centro Municipal de Educação Infantil Professora Alcyone Alves Vidal Neves, 40, Rua Octávio Furtado Sarmento, Guarani, Região Geográfica Imediata de Ubá, Região Geográfica Intermediária de Juiz de Fora, Minas Gerais, 36160-000, Brasil",
    "lat": -21.3519149,
    "lng": -43.0521356,
    "query": "CENTRO, GUARANI, Minas Gerais, Brasil",
    "source": "neighborhood",
    "status": "ok",
    "uf": "MG"
  },
  "centro|guimarânia|mg": {
    "display_name": "Guimarânia, Região Geográfica Imediata de Patrocínio, Região Geográfica Intermediária de Patos de Minas, Minas Gerais, 38730-000, Brasil",
    "lat": -18.8442251,
    "lng": -46.7925141,
    "query": "GUIMARÂNIA, Minas Gerais, Brasil",
    "source": "city",
    "status": "ok",
    "uf": "MG"
  },
  "centro|iapu|mg": {
    "display_name": "Banco do Brasil, 120, Rua Chico Chumbo, Iapu, Bugre, Região Geográfica Imediata de Ipatinga, Região Geográfica Intermediária de Ipatinga, Minas Gerais, Região Sudeste, 35193-000, Brasil",
    "lat": -19.4262634,
    "lng": -42.2533843,
    "query": "CENTRO, IAPU, Minas Gerais, Brasil",
    "source": "neighborhood",
    "status": "ok",
    "uf": "MG"
  },
  "centro|ibiaí|mg": {
    "display_name": "Ibiaí, Região Geográfica Imediata de Pirapora, Região Geográfica Intermediária de Montes Claros, Minas Gerais, Brasil",
    "lat": -16.861111,
    "lng": -44.913889,
    "query": "IBIAÍ, Minas Gerais, Brasil",
    "source": "city",
    "status": "ok",
    "uf": "MG"
  },
  "centro|ibiracatu|mg": {
    "display_name": "Escola Estadual Maria Barbosa Leite, 100, Rua Henrique Ferreira, Ibiracatu, Região Geográfica Imediata de Montes Claros, Região Geográfica Intermediária de Montes Claros, Minas Gerais, Brasil",
    "lat": -15.6677843,
    "lng": -44.1679105,
    "query": "R HENRIQUE FERREIRA, 100, CENTRO, IBIRACATU, Minas Gerais, Brasil",
    "source": "address",
    "status": "ok",
    "uf": "MG"
  },
  "centro|igarapé|mg": {
    "display_name": "Centro, Vilares, Igarapé, Região Geográfica Imediata de Belo Horizonte, Região Metropolitana de Belo Horizonte, Região Geográfica Intermediária de Belo Horizonte, Minas Gerais, Região Sudeste, Brasil",
    "lat": -20.0706044,
    "lng": -44.301467,
    "query": "CENTRO, IGARAPÉ, Minas Gerais, Brasil",
    "source": "neighborhood",
    "status": "ok",
    "uf": "MG"
  },
  "centro|iguatama|mg": {
    "display_name": "Iguatama, Região Geográfica Imediata de Formiga, Região Geográfica Intermediária de Divinópolis, Minas Gerais, 38910-000, Brasil",
    "lat": -20.174445,
    "lng": -45.711111,
    "query": "IGUATAMA, Minas Gerais, Brasil",
    "source": "city",
    "status": "ok",
    "uf": "MG"
  },
  "centro|ipiaçu|mg": {
    "display_name": "Centro, Ipiaçu, Região Geográfica Imediata de Ituiutaba, Região Geográfica Intermediária de Uberlândia, Minas Gerais, 38350-000, Brasil",
    "lat": -18.6930229,
    "lng": -49.9437055,
    "query": "CENTRO, IPIAÇU, Minas Gerais, Brasil",
    "source": "neighborhood",
    "status": "ok",
    "uf": "MG"
  },
  "centro|itabirito|mg": {
    "display_name": "Centro, Itabirito, Região Geográfica Imediata de Santa Bárbara - Ouro Preto, Região Geográfica Intermediária de Belo Horizonte, Minas Gerais, Brasil",
    "lat": -20.2540592,
    "lng": -43.8020666,
    "query": "CENTRO, ITABIRITO, Minas Gerais, Brasil",
    "source": "neighborhood",
    "status": "ok",
    "uf": "MG"
  },
  "centro|itaguara|mg": {
    "display_name": "Itaguara, Região Geográfica Imediata de Oliveira, Região Metropolitana de Belo Horizonte, Região Geográfica Intermediária de Divinópolis, Minas Gerais, Brasil",
    "lat": -20.391389,
    "lng": -44.488055,
    "query": "ITAGUARA, Minas Gerais, Brasil",
    "source": "city",
    "status": "ok",
    "uf": "MG"
  },
  "centro|itamarandiba|mg": {
    "display_name": "Centro, Itamarandiba, Região Geográfica Imediata de Capelinha, Região Geográfica Intermediária de Teófilo Otoni, Minas Gerais, 39668-026, Brasil",
    "lat": -17.8579182,
    "lng": -42.8580498,
    "query": "CENTRO, ITAMARANDIBA, Minas Gerais, Brasil",
    "source": "neighborhood",
    "status": "ok",
    "uf": "MG"
  },
  "centro|itambacuri|mg": {
    "display_name": "Congregação Cristã no Brasil, Rua Teófilo Otoni, Itambacuri, Região Geográfica Imediata de Teófilo Otoni, Região Geográfica Intermediária de Teófilo Otoni, Minas Gerais, 39830-000, Brasil",
    "lat": -18.0354222,
    "lng": -41.6741605,
    "query": "CENTRO, ITAMBACURI, Minas Gerais, Brasil",
    "source": "neighborhood",
    "status": "ok",
    "uf": "MG"
  },
  "centro|itamogi|mg": {
    "display_name": "Centro, Itamogi, Região Geográfica Imediata de São Sebastião do Paraíso, Região Geográfica Intermediária de Varginha, Minas Gerais, 37955-000, Brasil",
    "lat": -21.0783956,
    "lng": -47.0477155,
    "query": "CENTRO, ITAMOGI, Minas Gerais, Brasil",
    "source": "neighborhood",
    "status": "ok",
    "uf": "MG"
  },
  "centro|itamonte|mg": {
    "display_name": "Magasine Brasil, 885, BR-354, Vila Nova, Itamonte, Região Geográfica Imediata de São Lourenço, Região Geográfica Intermediária de Pouso Alegre, Minas Gerais, 37466-000, Brasil",
    "lat": -22.2803928,
    "lng": -44.8723581,
    "query": "CENTRO, ITAMONTE, Minas Gerais, Brasil",
    "source": "neighborhood",
    "status": "ok",
    "uf": "MG"
  },
  "centro|itanhandu|mg": {
    "display_name": "Itanhandu, Região Geográfica Imediata de São Lourenço, Região Geográfica Intermediária de Pouso Alegre, Minas Gerais, 37464-000, Brasil",
    "lat": -22.2957913,
    "lng": -44.9366732,
    "query": "ITANHANDU, Minas Gerais, Brasil",
    "source": "city",
    "status": "ok",
    "uf": "MG"
  },
  "centro|itaobim|mg": {
    "display_name": "Banco do Brasil, 65, Rua Guanabara, Itaobim, Região Geográfica Imediata de Teófilo Otoni, Região Geográfica Intermediária de Teófilo Otoni, Minas Gerais, 39625-000, Brasil",
    "lat": -16.5629524,
    "lng": -41.5003587,
    "query": "CENTRO, ITAOBIM, Minas Gerais, Brasil",
    "source": "neighborhood",
    "status": "ok",
    "uf": "MG"
  },
  "centro|itapecerica|mg": {
    "display_name": "Praça Do Centro, Itapecerica, Região Geográfica Imediata de Divinópolis, Região Geográfica Intermediária de Divinópolis, Minas Gerais, Brasil",
    "lat": -20.4704978,
    "lng": -45.1235404,
    "query": "CENTRO, ITAPECERICA, Minas Gerais, Brasil",
    "source": "neighborhood",
    "status": "ok",
    "uf": "MG"
  },
  "centro|itatiaiucu|mg": {
    "display_name": "Itatiaiuçu, Região Geográfica Imediata de Divinópolis, Região Metropolitana de Belo Horizonte, Região Geográfica Intermediária de Divinópolis, Minas Gerais, Brasil",
    "lat": -20.1975724,
    "lng": -44.4224889,
    "query": "ITATIAIUCU, Minas Gerais, Brasil",
    "source": "city",
    "status": "ok",
    "uf": "MG"
  },
  "centro|itatiaiuçu|mg": {
    "display_name": "Itatiaiuçu, Região Geográfica Imediata de Divinópolis, Região Metropolitana de Belo Horizonte, Região Geográfica Intermediária de Divinópolis, Minas Gerais, Brasil",
    "lat": -20.1975724,
    "lng": -44.4224889,
    "query": "ITATIAIUÇU, Minas Gerais, Brasil",
    "source": "city",
    "status": "ok",
    "uf": "MG"
  },
  "centro|itaverava|mg": {
    "display_name": "Itaverava, Região Geográfica Imediata de Conselheiro Lafaiete, Região Geográfica Intermediária de Juiz de Fora, Minas Gerais, 36440-000, Brasil",
    "lat": -20.6763122,
    "lng": -43.6098991,
    "query": "ITAVERAVA, Minas Gerais, Brasil",
    "source": "city",
    "status": "ok",
    "uf": "MG"
  },
  "centro|jacutinga|mg": {
    "display_name": "Centro Espirita, Rua Marechal Deodoro, Jacutinga, Região Geográfica Imediata de Pouso Alegre, Região Geográfica Intermediária de Pouso Alegre, Minas Gerais, 37590-000, Brasil",
    "lat": -22.2833059,
    "lng": -46.6074427,
    "query": "Centro, JACUTINGA, Minas Gerais, Brasil",
    "source": "neighborhood",
    "status": "ok",
    "uf": "MG"
  },
  "centro|japaraíba|mg": {
    "display_name": "Japaraíba, Região Geográfica Imediata de Divinópolis, Região Geográfica Intermediária de Divinópolis, Minas Gerais, Brasil",
    "lat": -20.1416346,
    "lng": -45.5032099,
    "query": "JAPARAÍBA, Minas Gerais, Brasil",
    "source": "city",
    "status": "ok",
    "uf": "MG"
  },
  "centro|jequeri|mg": {
    "display_name": "Jequeri, Região Geográfica Imediata de Ponte Nova, Região Geográfica Intermediária de Juiz de Fora, Minas Gerais, 35390-000, Brasil",
    "lat": -20.453056,
    "lng": -42.666111,
    "query": "JEQUERI, Minas Gerais, Brasil",
    "source": "city",
    "status": "ok",
    "uf": "MG"
  },
  "centro|jequitinhonha|mg": {
    "display_name": "Centro de Especialidades Odontológicas - Ceo, 600, Rua Bento Quinto, Jequitinhonha, Região Geográfica Imediata de Almenara, Região Geográfica Intermediária de Teófilo Otoni, Minas Gerais, 39960-000, Brasil",
    "lat": -16.4411472,
    "lng": -41.0149403,
    "query": "CENTRO, JEQUITINHONHA, Minas Gerais, Brasil",
    "source": "neighborhood",
    "status": "ok",
    "uf": "MG"
  },
  "centro|jesuânia|mg": {
    "display_name": "Jesuânia, Região Geográfica Imediata de São Lourenço, Região Geográfica Intermediária de Pouso Alegre, Minas Gerais, Brasil",
    "lat": -21.997777,
    "lng": -45.290833,
    "query": "JESUÂNIA, Minas Gerais, Brasil",
    "source": "city",
    "status": "ok",
    "uf": "MG"
  },
  "centro|joaima|mg": {
    "display_name": "Centro Esportivo Municipal, Rua Frei Emereciano, Joaíma, Região Geográfica Imediata de Almenara, Região Geográfica Intermediária de Teófilo Otoni, Minas Gerais, 39890-000, Brasil",
    "lat": -16.6573682,
    "lng": -41.0266784,
    "query": "CENTRO, JOAIMA, Minas Gerais, Brasil",
    "source": "neighborhood",
    "status": "ok",
    "uf": "MG"
  },
  "centro|joaíma|mg": {
    "display_name": "Centro Esportivo Municipal, Avenida Minas Gerais, Joaíma, Região Geográfica Imediata de Almenara, Região Geográfica Intermediária de Teófilo Otoni, Minas Gerais, 39890-000, Brasil",
    "lat": -16.6573682,
    "lng": -41.0266784,
    "query": "CENTRO, JOAÍMA, Minas Gerais, Brasil",
    "source": "neighborhood",
    "status": "ok",
    "uf": "MG"
  },
  "centro|jordânia|mg": {
    "display_name": "Centro de Referência em Assistencia Social, 69, Rua Caetés, Jordânia, Região Geográfica Imediata de Almenara, Região Geográfica Intermediária de Teófilo Otoni, Minas Gerais, 39920-000, Brasil",
    "lat": -15.8974207,
    "lng": -40.1846785,
    "query": "CENTRO, JORDÂNIA, Minas Gerais, Brasil",
    "source": "neighborhood",
    "status": "ok",
    "uf": "MG"
  },
  "centro|juiz de fora|mg": {
    "display_name": "Centro, Juiz de Fora, Região Geográfica Imediata de Juiz de Fora, Região Geográfica Intermediária de Juiz de Fora, Minas Gerais, Brasil",
    "lat": -21.7600981,
    "lng": -43.3463323,
    "query": "Centro, Juiz de Fora, Minas Gerais, Brasil",
    "source": "neighborhood",
    "status": "ok",
    "uf": "MG"
  },
  "centro|lagoa dos patos|mg": {
    "display_name": "Escola Estadual Raimundo Nonato da Fonseca, 731, Rua Dona Guiomar, Lagoa dos Patos, Região Geográfica Imediata de Montes Claros, Região Geográfica Intermediária de Montes Claros, Minas Gerais, Região Sudeste, Brasil",
    "lat": -16.9847197,
    "lng": -44.5819489,
    "query": "R DONA GUIOMAR, 731, CENTRO, LAGOA DOS PATOS, Minas Gerais, Brasil",
    "source": "address",
    "status": "ok",
    "uf": "MG"
  },
  "centro|lagoa grande|mg": {
    "display_name": "Avenida Brasil, Lagoa Grande, Patos de Minas, Região Geográfica Imediata de Patos de Minas, Região Geográfica Intermediária de Patos de Minas, Minas Gerais, 38700-128, Brasil",
    "lat": -18.5950095,
    "lng": -46.5161075,
    "query": "CENTRO, LAGOA GRANDE, Minas Gerais, Brasil",
    "source": "neighborhood",
    "status": "ok",
    "uf": "MG"
  },
  "centro|lagoa santa|mg": {
    "display_name": "Centro, Lagoa Santa, Região Geográfica Imediata de Belo Horizonte, Região Metropolitana de Belo Horizonte, Região Geográfica Intermediária de Belo Horizonte, Minas Gerais, Brasil",
    "lat": -19.6291378,
    "lng": -43.8945938,
    "query": "CENTRO, LAGOA SANTA, Minas Gerais, Brasil",
    "source": "neighborhood",
    "status": "ok",
    "uf": "MG"
  },
  "centro|leopoldina|mg": {
    "display_name": "Centro Cultural Mauro de Almeida Pereira, Rua João Lamarca, Leopoldina, Região Geográfica Imediata de Cataguases, Região Geográfica Intermediária de Juiz de Fora, Minas Gerais, Brasil",
    "lat": -21.5334365,
    "lng": -42.6386938,
    "query": "CENTRO, LEOPOLDINA, Minas Gerais, Brasil",
    "source": "neighborhood",
    "status": "ok",
    "uf": "MG"
  },
  "centro|luz|mg": {
    "display_name": "CELP - Centro Esportivo Laerton Paulinelli, 646, Rua Guarim Caetano da Fonseca, Luz, Região Geográfica Imediata de Dores do Indaiá, Região Geográfica Intermediária de Divinópolis, Minas Gerais, 35595-000, Brasil",
    "lat": -19.8009394,
    "lng": -45.6788531,
    "query": "CENTRO, LUZ, Minas Gerais, Brasil",
    "source": "neighborhood",
    "status": "ok",
    "uf": "MG"
  },
  "centro|machado|mg": {
    "display_name": "Fazenda do Centro, Machado, Região Geográfica Imediata de Alfenas, Região Geográfica Intermediária de Varginha, Minas Gerais, Brasil",
    "lat": -21.5768762,
    "lng": -45.9846497,
    "query": "Centro, MACHADO, Minas Gerais, Brasil",
    "source": "neighborhood",
    "status": "ok",
    "uf": "MG"
  },
  "centro|manhuaçu|mg": {
    "display_name": "Centro, Baixada, Bela Vista, Manhuaçu, Região Geográfica Imediata de Manhuaçu, Região Geográfica Intermediária de Juiz de Fora, Minas Gerais, Brasil",
    "lat": -20.2569834,
    "lng": -42.0326615,
    "query": "CENTRO, MANHUAÇU, Minas Gerais, Brasil",
    "source": "neighborhood",
    "status": "ok",
    "uf": "MG"
  },
  "centro|manhumirim|mg": {
    "display_name": "Centro, Manhumirim, Região Geográfica Imediata de Manhuaçu, Região Geográfica Intermediária de Juiz de Fora, Minas Gerais, 36970-000, Brasil",
    "lat": -20.3581266,
    "lng": -41.9594853,
    "query": "Centro, MANHUMIRIM, Minas Gerais, Brasil",
    "source": "neighborhood",
    "status": "ok",
    "uf": "MG"
  },
  "centro|mariana|mg": {
    "display_name": "Centro, Mariana, Região Geográfica Imediata de Santa Bárbara - Ouro Preto, Região Geográfica Intermediária de Belo Horizonte, Minas Gerais, Brasil",
    "lat": -20.3769047,
    "lng": -43.4170354,
    "query": "CENTRO, MARIANA, Minas Gerais, Brasil",
    "source": "neighborhood",
    "status": "ok",
    "uf": "MG"
  },
  "centro|martins soares|mg": {
    "display_name": "Centro Cultural Cenecista Joubert de Carvalho, Rua Doutor Ludovice, Abadia, Uberaba, Região Geográfica Imediata de Uberaba, Região Geográfica Intermediária de Uberaba, Minas Gerais, 38022-200, Brasil",
    "lat": -19.7715342,
    "lng": -47.9355477,
    "query": "CENTRO, MARTINS SOARES, Minas Gerais, Brasil",
    "source": "neighborhood",
    "status": "ok",
    "uf": "MG"
  },
  "centro|mata verde|mg": {
    "display_name": "Mata Verde, Região Geográfica Imediata de Almenara, Região Geográfica Intermediária de Teófilo Otoni, Minas Gerais, 39915-000, Brasil",
    "lat": -15.6874451,
    "lng": -40.7391431,
    "query": "MATA VERDE, Minas Gerais, Brasil",
    "source": "city",
    "status": "ok",
    "uf": "MG"
  },
  "centro|materlândia|mg": {
    "display_name": "CRAS de Materlândia, 193, Rua Galdino Alves, Materlândia, Região Geográfica Imediata de Guanhães, Região Geográfica Intermediária de Governador Valadares, Minas Gerais, 39755-000, Brasil",
    "lat": -18.4748362,
    "lng": -43.0594007,
    "query": "CENTRO, MATERLÂNDIA, Minas Gerais, Brasil",
    "source": "neighborhood",
    "status": "ok",
    "uf": "MG"
  },
  "centro|matias barbosa|mg": {
    "display_name": "Centro Empresarial Park Sul, U&M Mineração e Construção S.A., Matias Barbosa, Região Geográfica Imediata de Juiz de Fora, Região Geográfica Intermediária de Juiz de Fora, Minas Gerais, 36033-003, Brasil",
    "lat": -21.8357494,
    "lng": -43.3796257,
    "query": "CENTRO, MATIAS BARBOSA, Minas Gerais, Brasil",
    "source": "neighborhood",
    "status": "ok",
    "uf": "MG"
  },
  "centro|matipó|mg": {
    "display_name": "Matipó, Região Geográfica Imediata de Manhuaçu, Região Geográfica Intermediária de Juiz de Fora, Minas Gerais, Brasil",
    "lat": -20.2896695,
    "lng": -42.3426599,
    "query": "MATIPÓ, Minas Gerais, Brasil",
    "source": "city",
    "status": "ok",
    "uf": "MG"
  },
  "centro|matozinhos|mg": {
    "display_name": "Centro, Matozinhos, Região Geográfica Imediata de Sete Lagoas, Região Metropolitana de Belo Horizonte, Região Geográfica Intermediária de Belo Horizonte, Minas Gerais, Brasil",
    "lat": -19.559448,
    "lng": -44.0793701,
    "query": "CENTRO, MATOZINHOS, Minas Gerais, Brasil",
    "source": "neighborhood",
    "status": "ok",
    "uf": "MG"
  },
  "centro|matutina|mg": {
    "display_name": "Banco do Brasil, 88, Avenida Geraldo Romano, Stella Matutina, Nanuque, Região Geográfica Imediata de Teófilo Otoni, Região Geográfica Intermediária de Teófilo Otoni, Minas Gerais, 39860-000, Brasil",
    "lat": -17.8389774,
    "lng": -40.3502315,
    "query": "CENTRO, MATUTINA, Minas Gerais, Brasil",
    "source": "neighborhood",
    "status": "ok",
    "uf": "MG"
  },
  "centro|medina|mg": {
    "display_name": "Escola Estadual Luiz Tanure, 164, Rua Olinta de Melo, Medina, Região Geográfica Imediata de Pedra Azul, Região Geográfica Intermediária de Teófilo Otoni, Minas Gerais, 39620-000, Brasil",
    "lat": -16.2257315,
    "lng": -41.4740837,
    "query": "RUA OLINTA MELO, 164, CENTRO, MEDINA, Minas Gerais, Brasil",
    "source": "address",
    "status": "ok",
    "uf": "MG"
  },
  "centro|minas novas|mg": {
    "display_name": "Centro, Minas Novas, Região Geográfica Imediata de Capelinha, Região Geográfica Intermediária de Teófilo Otoni, Minas Gerais, 39650-000, Brasil",
    "lat": -17.2170987,
    "lng": -42.5951338,
    "query": "CENTRO, MINAS NOVAS, Minas Gerais, Brasil",
    "source": "neighborhood",
    "status": "ok",
    "uf": "MG"
  },
  "centro|miradouro|mg": {
    "display_name": "Banco do Brasil, 108, Rua Tenente Pereira do Vale, Palmeira, Miradouro, Região Geográfica Imediata de Muriaé, Região Geográfica Intermediária de Juiz de Fora, Minas Gerais, 36893-000, Brasil",
    "lat": -20.8898971,
    "lng": -42.3419848,
    "query": "CENTRO, MIRADOURO, Minas Gerais, Brasil",
    "source": "neighborhood",
    "status": "ok",
    "uf": "MG"
  },
  "centro|miraí|mg": {
    "display_name": "Banco do Brasil, 87, Praça Doutor Miguel Alves Pereira, Miraí, Região Geográfica Imediata de Muriaé, Região Geográfica Intermediária de Juiz de Fora, Minas Gerais, 36790-000, Brasil",
    "lat": -21.1957526,
    "lng": -42.6120564,
    "query": "CENTRO, MIRAÍ, Minas Gerais, Brasil",
    "source": "neighborhood",
    "status": "ok",
    "uf": "MG"
  },
  "centro|moeda|mg": {
    "display_name": "Moeda, Região Geográfica Imediata de Belo Horizonte, Região Geográfica Intermediária de Belo Horizonte, Minas Gerais, 35470-000, Brasil",
    "lat": -20.333056,
    "lng": -44.0525,
    "query": "MOEDA, Minas Gerais, Brasil",
    "source": "city",
    "status": "ok",
    "uf": "MG"
  },
  "centro|montes claros|mg": {
    "display_name": "Centro, Montes Claros, Região Geográfica Imediata de Montes Claros, Região Geográfica Intermediária de Montes Claros, Minas Gerais, Brasil",
    "lat": -16.7229868,
    "lng": -43.8653481,
    "query": "CENTRO, MONTES CLAROS, Minas Gerais, Brasil",
    "source": "neighborhood",
    "status": "ok",
    "uf": "MG"
  },
  "centro|muriaé|mg": {
    "display_name": "Centro, Muriaé, Região Geográfica Imediata de Muriaé, Região Geográfica Intermediária de Juiz de Fora, Minas Gerais, 36880-049, Brasil",
    "lat": -21.132418,
    "lng": -42.358276,
    "query": "CENTRO, MURIAÉ, Minas Gerais, Brasil",
    "source": "neighborhood",
    "status": "ok",
    "uf": "MG"
  },
  "centro|nanuque|mg": {
    "display_name": "Centro, Nanuque, Região Geográfica Imediata de Teófilo Otoni, Região Geográfica Intermediária de Teófilo Otoni, Minas Gerais, 39860-000, Brasil",
    "lat": -17.8398658,
    "lng": -40.3504975,
    "query": "CENTRO, NANUQUE, Minas Gerais, Brasil",
    "source": "neighborhood",
    "status": "ok",
    "uf": "MG"
  },
  "centro|naque|mg": {
    "display_name": "Naque, Região Geográfica Imediata de Ipatinga, Região Geográfica Intermediária de Ipatinga, Minas Gerais, Região Sudeste, 35117-000, Brasil",
    "lat": -19.2271271,
    "lng": -42.3280185,
    "query": "NAQUE, Minas Gerais, Brasil",
    "source": "city",
    "status": "ok",
    "uf": "MG"
  },
  "centro|nepomuceno|mg": {
    "display_name": "Centro, São João Nepomuceno, Região Geográfica Imediata de São João Nepomuceno - Bicas, Região Geográfica Intermediária de Juiz de Fora, Minas Gerais, 36680-147, Brasil",
    "lat": -21.5359035,
    "lng": -43.0133297,
    "query": "CENTRO, NEPOMUCENO, Minas Gerais, Brasil",
    "source": "neighborhood",
    "status": "ok",
    "uf": "MG"
  },
  "centro|ouro fino|mg": {
    "display_name": "Centro, Ouro Fino, Região Geográfica Imediata de Pouso Alegre, Região Geográfica Intermediária de Pouso Alegre, Minas Gerais, 37570-000, Brasil",
    "lat": -22.2836499,
    "lng": -46.3786543,
    "query": "CENTRO, OURO FINO, Minas Gerais, Brasil",
    "source": "neighborhood",
    "status": "ok",
    "uf": "MG"
  },
  "centro|paraopeba|mg": {
    "display_name": "Centro de Educação Infantil Elza Moreira Lopes, Rua Caetanópolis, Paraopeba, Região Geográfica Imediata de Sete Lagoas, Região Geográfica Intermediária de Belo Horizonte, Minas Gerais, Região Sudeste, 35774-000, Brasil",
    "lat": -19.2830448,
    "lng": -44.3988784,
    "query": "CENTRO, PARAOPEBA, Minas Gerais, Brasil",
    "source": "neighborhood",
    "status": "ok",
    "uf": "MG"
  },
  "centro|pará de minas|mg": {
    "display_name": "Centro, Pará de Minas, Região Geográfica Imediata de Pará de Minas, Região Geográfica Intermediária de Divinópolis, Minas Gerais, Região Sudeste, Brasil",
    "lat": -19.8624517,
    "lng": -44.6080327,
    "query": "CENTRO, PARÁ DE MINAS, Minas Gerais, Brasil",
    "source": "neighborhood",
    "status": "ok",
    "uf": "MG"
  },
  "centro|patos de minas|mg": {
    "display_name": "Centro, Patos de Minas, Região Geográfica Imediata de Patos de Minas, Região Geográfica Intermediária de Patos de Minas, Minas Gerais, 38700-122, Brasil",
    "lat": -18.588349,
    "lng": -46.5145692,
    "query": "CENTRO, PATOS DE MINAS, Minas Gerais, Brasil",
    "source": "neighborhood",
    "status": "ok",
    "uf": "MG"
  },
  "centro|pedra azul|mg": {
    "display_name": "Centro, Pedra Azul, Região Geográfica Imediata de Pedra Azul, Região Geográfica Intermediária de Teófilo Otoni, Minas Gerais, Brasil",
    "lat": -16.0053666,
    "lng": -41.2821962,
    "query": "CENTRO, PEDRA AZUL, Minas Gerais, Brasil",
    "source": "neighborhood",
    "status": "ok",
    "uf": "MG"
  },
  "centro|pedra do indaiá|mg": {
    "display_name": "Centro Zoonoses, Rua Pedra Azul, Novo Horizonte, Bom Despacho, Região Geográfica Imediata de Dores do Indaiá, Região Geográfica Intermediária de Divinópolis, Minas Gerais, 35634-402, Brasil",
    "lat": -19.7545994,
    "lng": -45.2899899,
    "query": "CENTRO, PEDRA DO INDAIÁ, Minas Gerais, Brasil",
    "source": "neighborhood",
    "status": "ok",
    "uf": "MG"
  },
  "centro|pedro leopoldo|mg": {
    "display_name": "Centro, Pedro Leopoldo, Região Geográfica Imediata de Belo Horizonte, Região Metropolitana de Belo Horizonte, Região Geográfica Intermediária de Belo Horizonte, Minas Gerais, 33250-060, Brasil",
    "lat": -19.6217006,
    "lng": -44.0406278,
    "query": "CENTRO, PEDRO LEOPOLDO, Minas Gerais, Brasil",
    "source": "neighborhood",
    "status": "ok",
    "uf": "MG"
  },
  "centro|pequi|mg": {
    "display_name": "Pequi, Região Geográfica Imediata de Pará de Minas, Região Geográfica Intermediária de Divinópolis, Minas Gerais, Brasil",
    "lat": -19.6315163,
    "lng": -44.6597262,
    "query": "PEQUI, Minas Gerais, Brasil",
    "source": "city",
    "status": "ok",
    "uf": "MG"
  },
  "centro|pirapora|mg": {
    "display_name": "Centro, Pirapora, Região Geográfica Imediata de Pirapora, Região Geográfica Intermediária de Montes Claros, Minas Gerais, Brasil",
    "lat": -17.3507164,
    "lng": -44.949504,
    "query": "CENTRO, Pirapora, Minas Gerais, Brasil",
    "source": "neighborhood",
    "status": "ok",
    "uf": "MG"
  },
  "centro|porteirinha|mg": {
    "display_name": "Porteirinha, Região Geográfica Imediata de Janaúba, Região Geográfica Intermediária de Montes Claros, Minas Gerais, 39520-000, Brasil",
    "lat": -15.7420889,
    "lng": -43.0286046,
    "query": "PORTEIRINHA, Minas Gerais, Brasil",
    "source": "city",
    "status": "ok",
    "uf": "MG"
  },
  "centro|pouso alegre|mg": {
    "display_name": "Centro, Quadrante Central, Pouso Alegre, Região Geográfica Imediata de Pouso Alegre, Região Geográfica Intermediária de Pouso Alegre, Minas Gerais, 37550-126, Brasil",
    "lat": -22.2310461,
    "lng": -45.9367323,
    "query": "Centro, POUSO ALEGRE, Minas Gerais, Brasil",
    "source": "neighborhood",
    "status": "ok",
    "uf": "MG"
  },
  "centro|pouso alto|mg": {
    "display_name": "Centro de Educação Profissional Tancredo Neves, 70, Praça Nossa Senhora Aparecida, Alto da Glória, Brazópolis, Região Geográfica Imediata de Itajubá, Região Geográfica Intermediária de Pouso Alegre, Minas Gerais, 37530-000, Brasil",
    "lat": -22.4749605,
    "lng": -45.6089005,
    "query": "CENTRO, POUSO ALTO, Minas Gerais, Brasil",
    "source": "neighborhood",
    "status": "ok",
    "uf": "MG"
  },
  "centro|poços de caldas|mg": {
    "display_name": "Centro, Região Urbana Homogênea IX, Poços de Caldas, Região Geográfica Imediata de Poços de Caldas, Região Geográfica Intermediária de Pouso Alegre, Minas Gerais, 37701-010, Brasil",
    "lat": -21.7883799,
    "lng": -46.5661817,
    "query": "CENTRO, POÇOS DE CALDAS, Minas Gerais, Brasil",
    "source": "neighborhood",
    "status": "ok",
    "uf": "MG"
  },
  "centro|presidente juscelino|mg": {
    "display_name": "Centro, Presidente Juscelino, Região Geográfica Imediata de Curvelo, Região Geográfica Intermediária de Belo Horizonte, Minas Gerais, Brasil",
    "lat": -18.6368073,
    "lng": -44.0588973,
    "query": "Centro, PRESIDENTE JUSCELINO, Minas Gerais, Brasil",
    "source": "neighborhood",
    "status": "ok",
    "uf": "MG"
  },
  "centro|presidente kubitschek|mg": {
    "display_name": "CRAS - Centro de Referência em Assistência Social, Avenida Nossa Senhora das Dores, Presidente Kubitschek, Região Geográfica Imediata de Diamantina, Região Geográfica Intermediária de Teófilo Otoni, Minas Gerais, 39135-000, Brasil",
    "lat": -18.6154723,
    "lng": -43.5639245,
    "query": "CENTRO, PRESIDENTE KUBITSCHEK, Minas Gerais, Brasil",
    "source": "neighborhood",
    "status": "ok",
    "uf": "MG"
  },
  "centro|reduto|mg": {
    "display_name": "Reduto, Região Geográfica Imediata de Manhuaçu, Região Geográfica Intermediária de Juiz de Fora, Minas Gerais, Brasil",
    "lat": -20.2442531,
    "lng": -41.9839974,
    "query": "REDUTO, Minas Gerais, Brasil",
    "source": "city",
    "status": "ok",
    "uf": "MG"
  },
  "centro|sabinópolis|mg": {
    "display_name": "CREAS, Avenida São Sebastião, Operário, Sabinópolis, Região Geográfica Imediata de Guanhães, Região Geográfica Intermediária de Governador Valadares, Minas Gerais, 39750-000, Brasil",
    "lat": -18.6660491,
    "lng": -43.0756816,
    "query": "CENTRO, SABINÓPOLIS, Minas Gerais, Brasil",
    "source": "neighborhood",
    "status": "ok",
    "uf": "MG"
  },
  "centro|santa margarida|mg": {
    "display_name": "Centro de Aprendizagem Comunitário, Rua Custódio Nascimento Pinto, Ribeirão de São Domingos, Santa Margarida, Região Geográfica Imediata de Manhuaçu, Região Geográfica Intermediária de Juiz de Fora, Minas Gerais, Brasil",
    "lat": -20.4659774,
    "lng": -42.2842022,
    "query": "CENTRO, SANTA MARGARIDA, Minas Gerais, Brasil",
    "source": "neighborhood",
    "status": "ok",
    "uf": "MG"
  },
  "centro|santa maria do salto|mg": {
    "display_name": "Santa Maria do Salto, Região Geográfica Imediata de Almenara, Região Geográfica Intermediária de Teófilo Otoni, Minas Gerais, 39928-000, Brasil",
    "lat": -16.2490112,
    "lng": -40.1484503,
    "query": "SANTA MARIA DO SALTO, Minas Gerais, Brasil",
    "source": "city",
    "status": "ok",
    "uf": "MG"
  },
  "centro|santana do deserto|mg": {
    "display_name": "Santana do Deserto, Região Geográfica Imediata de Juiz de Fora, Região Geográfica Intermediária de Juiz de Fora, Minas Gerais, Brasil",
    "lat": -21.95,
    "lng": -43.166667,
    "query": "SANTANA DO DESERTO, Minas Gerais, Brasil",
    "source": "city",
    "status": "ok",
    "uf": "MG"
  },
  "centro|santana dos montes|mg": {
    "display_name": "Centro de Cultura e Apoio ao Turista, 66, Praça Aristides de Araújo Teixeira, Fernandes, Santana dos Montes, Região Geográfica Imediata de Conselheiro Lafaiete, Região Geográfica Intermediária de Juiz de Fora, Minas Gerais, Brasil",
    "lat": -20.7881193,
    "lng": -43.6903845,
    "query": "CENTRO, SANTANA DOS MONTES, Minas Gerais, Brasil",
    "source": "neighborhood",
    "status": "ok",
    "uf": "MG"
  },
  "centro|santo antonio do jacinto|mg": {
    "display_name": "Banco do Brasil, 41, Praça Getúlio Vargas, Santo Antônio do Jacinto, Região Geográfica Imediata de Almenara, Região Geográfica Intermediária de Teófilo Otoni, Minas Gerais, 39935-000, Brasil",
    "lat": -16.5344921,
    "lng": -40.1753063,
    "query": "CENTRO, SANTO ANTONIO DO JACINTO, Minas Gerais, Brasil",
    "source": "neighborhood",
    "status": "ok",
    "uf": "MG"
  },
  "centro|santo antônio do amparo|mg": {
    "display_name": "Estrada de Ferro Centro Atlântica, Rodovia Fernão Dias, Santo Antônio do Amparo, Região Geográfica Imediata de Lavras, Região Geográfica Intermediária de Varginha, Minas Gerais, Brasil",
    "lat": -20.867026,
    "lng": -44.8408362,
    "query": "CENTRO, SANTO ANTÔNIO DO AMPARO, Minas Gerais, Brasil",
    "source": "neighborhood",
    "status": "ok",
    "uf": "MG"
  },
  "centro|santo antônio do jacinto|mg": {
    "display_name": "Banco do Brasil, 41, Praça Getúlio Vargas, Santo Antônio do Jacinto, Região Geográfica Imediata de Almenara, Região Geográfica Intermediária de Teófilo Otoni, Minas Gerais, 39935-000, Brasil",
    "lat": -16.5344921,
    "lng": -40.1753063,
    "query": "CENTRO, SANTO ANTÔNIO DO JACINTO, Minas Gerais, Brasil",
    "source": "neighborhood",
    "status": "ok",
    "uf": "MG"
  },
  "centro|santo antônio do monte|mg": {
    "display_name": "FAI Centro de Ensino Superior em Gestão, Tecnologia e Educação, Avenida Antônio de Cássia, Eletrônica, Santa Rita do Sapucaí, Região Geográfica Imediata de Pouso Alegre, Região Geográfica Intermediária de Pouso Alegre, Minas Gerais, 37540-000, Brasil",
    "lat": -22.2602979,
    "lng": -45.7028576,
    "query": "CENTRO, SANTO ANTÔNIO DO MONTE, Minas Gerais, Brasil",
    "source": "neighborhood",
    "status": "ok",
    "uf": "MG"
  },
  "centro|santo antônio do retiro|mg": {
    "display_name": "Santo Antônio do Retiro, Região Geográfica Imediata de Espinosa, Região Geográfica Intermediária de Montes Claros, Minas Gerais, 39538-000, Brasil",
    "lat": -15.3423872,
    "lng": -42.6234885,
    "query": "SANTO ANTÔNIO DO RETIRO, Minas Gerais, Brasil",
    "source": "city",
    "status": "ok",
    "uf": "MG"
  },
  "centro|santos dumont|mg": {
    "display_name": "Centro Recreativo da COPASA, n/a, Santos Dumont, Itajubá, Região Geográfica Imediata de Itajubá, Região Geográfica Intermediária de Pouso Alegre, Minas Gerais, Brasil",
    "lat": -22.4240008,
    "lng": -45.4829997,
    "query": "Centro, SANTOS DUMONT, Minas Gerais, Brasil",
    "source": "neighborhood",
    "status": "ok",
    "uf": "MG"
  },
  "centro|senador amaral|mg": {
    "display_name": "Senador Amaral, Região Geográfica Imediata de Pouso Alegre, Região Geográfica Intermediária de Pouso Alegre, Minas Gerais, Brasil",
    "lat": -22.5875,
    "lng": -46.176667,
    "query": "SENADOR AMARAL, Minas Gerais, Brasil",
    "source": "city",
    "status": "ok",
    "uf": "MG"
  },
  "centro|seritinga|mg": {
    "display_name": "Seritinga, Região Geográfica Imediata de Caxambu - Baependi, Região Geográfica Intermediária de Pouso Alegre, Minas Gerais, Brasil",
    "lat": -21.9096949,
    "lng": -44.5216061,
    "query": "SERITINGA, Minas Gerais, Brasil",
    "source": "city",
    "status": "ok",
    "uf": "MG"
  },
  "centro|serra azul de minas|mg": {
    "display_name": "Serra Azul de Minas, Região Geográfica Imediata de Diamantina, Região Geográfica Intermediária de Teófilo Otoni, Minas Gerais, Brasil",
    "lat": -18.3622042,
    "lng": -43.1702095,
    "query": "SERRA AZUL DE MINAS, Minas Gerais, Brasil",
    "source": "city",
    "status": "ok",
    "uf": "MG"
  },
  "centro|serrania|mg": {
    "display_name": "Serrania, Região Geográfica Imediata de Alfenas, Região Geográfica Intermediária de Varginha, Minas Gerais, Brasil",
    "lat": -21.547906,
    "lng": -46.0404553,
    "query": "SERRANIA, Minas Gerais, Brasil",
    "source": "city",
    "status": "ok",
    "uf": "MG"
  },
  "centro|serro|mg": {
    "display_name": "Centro Comunitário Dona Estulana Marques da Cunha, Estrada para Sede do PEPI, Capivari, São Gonçalo do Rio das Pedras, Serro, Região Geográfica Imediata de Diamantina, Região Geográfica Intermediária de Teófilo Otoni, Minas Gerais, 39150-000, Brasil",
    "lat": -18.4374513,
    "lng": -43.423393,
    "query": "CENTRO, SERRO, Minas Gerais, Brasil",
    "source": "neighborhood",
    "status": "ok",
    "uf": "MG"
  },
  "centro|sete lagoas|mg": {
    "display_name": "Centro Ótico, 7, Praça Francisco Sales, Boa Vista, Sete Lagoas, Região Geográfica Imediata de Sete Lagoas, Região Geográfica Intermediária de Belo Horizonte, Minas Gerais, 35700-037, Brasil",
    "lat": -19.4618028,
    "lng": -44.2442648,
    "query": "CENTRO, SETE LAGOAS, Minas Gerais, Brasil",
    "source": "neighborhood",
    "status": "ok",
    "uf": "MG"
  },
  "centro|simonésia|mg": {
    "display_name": "Simonésia, Região Geográfica Imediata de Manhuaçu, Região Geográfica Intermediária de Juiz de Fora, Minas Gerais, Brasil",
    "lat": -20.1233838,
    "lng": -42.0024294,
    "query": "SIMONÉSIA, Minas Gerais, Brasil",
    "source": "city",
    "status": "ok",
    "uf": "MG"
  },
  "centro|são domingos das dores|mg": {
    "display_name": "Centro, São Domingos das Dores, Região Geográfica Imediata de Caratinga, Região Geográfica Intermediária de Ipatinga, Minas Gerais, 35335-000, Brasil",
    "lat": -19.5266876,
    "lng": -42.0136714,
    "query": "CENTRO, São Domingos das Dores, Minas Gerais, Brasil",
    "source": "neighborhood",
    "status": "ok",
    "uf": "MG"
  },
  "centro|são domingos do prata|mg": {
    "display_name": "São Domingos do Prata, Região Geográfica Imediata de João Monlevade, Região Geográfica Intermediária de Ipatinga, Minas Gerais, Região Sudeste, Brasil",
    "lat": -19.8671078,
    "lng": -42.9658318,
    "query": "SÃO DOMINGOS DO PRATA, Minas Gerais, Brasil",
    "source": "city",
    "status": "ok",
    "uf": "MG"
  },
  "centro|são francisco do glória|mg": {
    "display_name": "Escola Estadual Santo Agostinho, 362, Rua Nossa Senhora Aparecida, São Francisco do Glória, Região Geográfica Imediata de Muriaé, Região Geográfica Intermediária de Juiz de Fora, Minas Gerais, 36810-000, Brasil",
    "lat": -20.7850805,
    "lng": -42.2687973,
    "query": "R NOSSA SENHORA APARECIDA, 362, CENTRO, SÃO FRANCISCO DO GLÓRIA, Minas Gerais, Brasil",
    "source": "address",
    "status": "ok",
    "uf": "MG"
  },
  "centro|são francisco|mg": {
    "display_name": "Centro, São Romão, Região Geográfica Imediata de São Francisco, Região Geográfica Intermediária de Montes Claros, Minas Gerais, Brasil",
    "lat": -16.368504,
    "lng": -45.0691072,
    "query": "CENTRO, SÃO FRANCISCO, Minas Gerais, Brasil",
    "source": "neighborhood",
    "status": "ok",
    "uf": "MG"
  },
  "centro|são josé do jacuri|mg": {
    "display_name": "Escola Estadual John Kennedy, 57, Rua Major Fulgêncio, São José do Jacuri, Região Geográfica Imediata de Guanhães, Região Geográfica Intermediária de Governador Valadares, Minas Gerais, 39707-000, Brasil",
    "lat": -18.2776434,
    "lng": -42.6719206,
    "query": "RUA MAJOR FULGÊNCIO, 57, CENTRO, SÃO JOSÉ DO JACURI, Minas Gerais, Brasil",
    "source": "address",
    "status": "ok",
    "uf": "MG"
  },
  "centro|são joão da mata|mg": {
    "display_name": "São João da Mata, Região Geográfica Imediata de Pouso Alegre, Região Geográfica Intermediária de Pouso Alegre, Minas Gerais, Brasil",
    "lat": -21.9311736,
    "lng": -45.9287155,
    "query": "SÃO JOÃO DA MATA, Minas Gerais, Brasil",
    "source": "city",
    "status": "ok",
    "uf": "MG"
  },
  "centro|são joão das missões|mg": {
    "display_name": "São João das Missões, Região Geográfica Imediata de Januária, Região Geográfica Intermediária de Montes Claros, Minas Gerais, 39475-000, Brasil",
    "lat": -14.8808771,
    "lng": -44.0829518,
    "query": "SÃO JOÃO DAS MISSÕES, Minas Gerais, Brasil",
    "source": "city",
    "status": "ok",
    "uf": "MG"
  },
  "centro|são joão do oriente|mg": {
    "display_name": "São João do Oriente, Região Geográfica Imediata de Ipatinga, Região Geográfica Intermediária de Ipatinga, Minas Gerais, Região Sudeste, Brasil",
    "lat": -19.3408771,
    "lng": -42.1550791,
    "query": "SÃO JOÃO DO ORIENTE, Minas Gerais, Brasil",
    "source": "city",
    "status": "ok",
    "uf": "MG"
  },
  "centro|são pedro do suaçuí|mg": {
    "display_name": "Centro de Saúde de São Pedro do Suaçuí, 17, Rua Professora Zinha Madeira, São Pedro do Suaçuí, Região Geográfica Imediata de Guanhães, Região Geográfica Intermediária de Governador Valadares, Minas Gerais, 39784-000, Brasil",
    "lat": -18.3638733,
    "lng": -42.6003134,
    "query": "CENTRO, SÃO PEDRO DO SUAÇUÍ, Minas Gerais, Brasil",
    "source": "neighborhood",
    "status": "ok",
    "uf": "MG"
  },
  "centro|são sebastião do maranhão|mg": {
    "display_name": "Igreja Presbiteriana do Brasil em São Sebastião do Maranhão, Rua José Franklin dos Reis, São Sebastião do Maranhão, Região Geográfica Imediata de Guanhães, Região Geográfica Intermediária de Governador Valadares, Minas Gerais, 39795-000, Brasil",
    "lat": -18.0890317,
    "lng": -42.5713702,
    "query": "CENTRO, SÃO SEBASTIÃO DO MARANHÃO, Minas Gerais, Brasil",
    "source": "neighborhood",
    "status": "ok",
    "uf": "MG"
  },
  "centro|três corações|mg": {
    "display_name": "Centro, Três Corações, Região Geográfica Imediata de Três Corações, Região Geográfica Intermediária de Varginha, Minas Gerais, 37410-000, Brasil",
    "lat": -21.6982293,
    "lng": -45.2560768,
    "query": "CENTRO, TRÊS CORAÇÕES, Minas Gerais, Brasil",
    "source": "neighborhood",
    "status": "ok",
    "uf": "MG"
  },
  "centro|três pontas|mg": {
    "display_name": "Centro, Três Pontas, Região Geográfica Imediata de Três Pontas - Boa Esperança, Região Geográfica Intermediária de Varginha, Minas Gerais, 37190-000, Brasil",
    "lat": -21.3678965,
    "lng": -45.5122933,
    "query": "CENTRO, TRÊS PONTAS, Minas Gerais, Brasil",
    "source": "neighborhood",
    "status": "ok",
    "uf": "MG"
  },
  "centro|urucuia|mg": {
    "display_name": "Centro Católico de Formação, 45, Rua Vicente Lima, Urucuia, Região Geográfica Imediata de Unaí, Região Geográfica Intermediária de Patos de Minas, Minas Gerais, 38649-000, Brasil",
    "lat": -16.1289223,
    "lng": -45.7435817,
    "query": "CENTRO, URUCUIA, Minas Gerais, Brasil",
    "source": "neighborhood",
    "status": "ok",
    "uf": "MG"
  },
  "centro|vazante|mg": {
    "display_name": "Pista de atleticismo Centro Esportivo Moacir Wilson Alves de Lima, Rua Santa Juliana, Vazante, Região Geográfica Imediata de Patos de Minas, Região Geográfica Intermediária de Patos de Minas, Minas Gerais, 38780-000, Brasil",
    "lat": -17.9902401,
    "lng": -46.8936073,
    "query": "CENTRO, VAZANTE, Minas Gerais, Brasil",
    "source": "neighborhood",
    "status": "ok",
    "uf": "MG"
  },
  "centro|virgínia|mg": {
    "display_name": "Virgínia, Região Geográfica Imediata de São Lourenço, Região Geográfica Intermediária de Pouso Alegre, Minas Gerais, Brasil",
    "lat": -22.333333,
    "lng": -45.091666,
    "query": "VIRGÍNIA, Minas Gerais, Brasil",
    "source": "city",
    "status": "ok",
    "uf": "MG"
  },
  "centro|visc do rio branco|mg": {
    "display_name": "Visconde do Rio Branco, Região Geográfica Imediata de Ubá, Região Geográfica Intermediária de Juiz de Fora, Minas Gerais, 36520-000, Brasil",
    "lat": -21.01,
    "lng": -42.840833,
    "query": "Visc do Rio Branco, Minas Gerais, Brasil",
    "source": "city",
    "status": "ok",
    "uf": "MG"
  },
  "centro|várzea da palma|mg": {
    "display_name": "Centro, Barra do Guaicuí, Várzea da Palma, Região Geográfica Imediata de Pirapora, Região Geográfica Intermediária de Montes Claros, Minas Gerais, Brasil",
    "lat": -17.1999845,
    "lng": -44.8203154,
    "query": "CENTRO, VÁRZEA DA PALMA, Minas Gerais, Brasil",
    "source": "neighborhood",
    "status": "ok",
    "uf": "MG"
  },
  "centro|águas vermelhas|mg": {
    "display_name": "PSF Centro, Rua Urbano Lopes, Águas Vermelhas, Região Geográfica Imediata de Pedra Azul, Região Geográfica Intermediária de Teófilo Otoni, Minas Gerais, Brasil",
    "lat": -15.7449665,
    "lng": -41.4574967,
    "query": "CENTRO, ÁGUAS VERMELHAS, Minas Gerais, Brasil",
    "source": "neighborhood",
    "status": "ok",
    "uf": "MG"
  },
  "cidade de deus|sete lagoas|mg": {
    "display_name": "Cidade de Deus, Rua Professor Fernandino Júnior, Boa Vista, Sete Lagoas, Região Geográfica Imediata de Sete Lagoas, Região Geográfica Intermediária de Belo Horizonte, Minas Gerais, 35700-037, Brasil",
    "lat": -19.4628329,
    "lng": -44.2450185,
    "query": "CIDADE DE DEUS, SETE LAGOAS, Minas Gerais, Brasil",
    "source": "neighborhood",
    "status": "ok",
    "uf": "MG"
  },
  "cidade dos meninos|governador valadares|mg": {
    "display_name": "Cidade dos Meninos, km 401, Rodovia Santos Dumont, Governador Valadares, Região Geográfica Imediata de Governador Valadares, Região Geográfica Intermediária de Governador Valadares, Minas Gerais, Região Sudeste, 35099-899, Brasil",
    "lat": -18.7859029,
    "lng": -41.9891975,
    "query": "CIDADE DOS MENINOS, GOVERNADOR VALADARES, Minas Gerais, Brasil",
    "source": "neighborhood",
    "status": "ok",
    "uf": "MG"
  },
  "cidade jardim|patrocínio|mg": {
    "display_name": "Cidade Jardim, Patrocínio, Região Geográfica Imediata de Patrocínio, Região Geográfica Intermediária de Patos de Minas, Minas Gerais, 38740-050, Brasil",
    "lat": -18.9439409,
    "lng": -46.9831986,
    "query": "CIDADE JARDIM, PATROCÍNIO, Minas Gerais, Brasil",
    "source": "neighborhood",
    "status": "ok",
    "uf": "MG"
  },
  "cidade jardim|santo antônio do monte|mg": {
    "display_name": "Santo Antônio do Monte, Região Geográfica Imediata de Divinópolis, Região Geográfica Intermediária de Divinópolis, Minas Gerais, 35560-000, Brasil",
    "lat": -20.086944,
    "lng": -45.290555,
    "query": "SANTO ANTÔNIO DO MONTE, Minas Gerais, Brasil",
    "source": "city",
    "status": "ok",
    "uf": "MG"
  },
  "cidade nova|almenara|mg": {
    "display_name": "Bairro Cidade Nova, Almenara, Região Geográfica Imediata de Almenara, Região Geográfica Intermediária de Teófilo Otoni, Minas Gerais, Brasil",
    "lat": -16.1911375,
    "lng": -40.6915869,
    "query": "CIDADE NOVA, ALMENARA, Minas Gerais, Brasil",
    "source": "neighborhood",
    "status": "ok",
    "uf": "MG"
  },