{
  "aarão reis|belo horizonte|mg": {
    "display_name": "Aarão Reis, Regional Norte, Belo Horizonte, Minas Gerais, Região Sudeste, 31814-620, Brasil",
    "lat": -19.8472211,
    "lng": -43.9195082,
    "query": "AARÃO REIS, BELO HORIZONTE, Minas Gerais, Brasil",
    "source": "neighborhood",
    "status": "ok",
    "uf": "MG"
  },
  "abadia|uberaba|mg": {
    "display_name": "Abadia, Uberaba, Minas Gerais, Região Sudeste, 38040-450, Brasil",
    "lat": -19.7589453,
    "lng": -47.9254938,
    "query": "ABADIA, UBERABA, Minas Gerais, Brasil",
    "source": "neighborhood",
    "status": "ok",
    "uf": "MG"
  },
  "aclimação|francisco badaró|mg": {
    "query": "ACLIMAÇÃO, FRANCISCO BADARÓ, Minas Gerais, Brasil",
    "status": "miss"
  },
  "aclimação|joão monlevade|mg": {
    "display_name": "Aclimação, João Monlevade, Região Geográfica Imediata de João Monlevade, Região Geográfica Intermediária de Ipatinga, Minas Gerais, 35930-112, Brasil",
    "lat": -19.8148855,
    "lng": -43.1883316,
    "query": "ACLIMAÇÃO, JOÃO MONLEVADE, Minas Gerais, Brasil",
    "source": "neighborhood",
    "status": "ok",
    "uf": "MG"
  },
  "adelino mano|carmo do cajuru|mg": {
    "display_name": "Adelino Mano, Carmo do Cajuru, Minas Gerais, Região Sudeste, 35510-000, Brasil",
    "lat": -20.1888578,
    "lng": -44.7744078,
    "query": "ADELINO MANO, CARMO DO CAJURU, Minas Gerais, Brasil",
    "source": "neighborhood",
    "status": "ok",
    "uf": "MG"
  },
  "aeroporto ii|bom despacho|mg": {
    "display_name": "Aeroporto, Bom Despacho, Região Geográfica Imediata de Dores do Indaiá, Região Geográfica Intermediária de Divinópolis, Minas Gerais, 35637-899, Brasil",
    "lat": -19.7444792,
    "lng": -45.284636,
    "query": "AEROPORTO II, BOM DESPACHO, Minas Gerais, Brasil",
    "source": "neighborhood",
    "status": "ok",
    "uf": "MG"
  },
  "aeroporto ii|itaúna|mg": {
    "display_name": "Aeroporto, Itaúna, Região Geográfica Imediata de Divinópolis, Região Geográfica Intermediária de Divinópolis, Minas Gerais, Brasil",
    "lat": -20.0961181,
    "lng": -44.5980872,
    "query": "AEROPORTO II, ITAÚNA, Minas Gerais, Brasil",
    "source": "neighborhood",
    "status": "ok",
    "uf": "MG"
  },
  "aeroporto industrial|sete lagoas|mg": {
    "display_name": "Sete Lagoas, Região Geográfica Imediata de Sete Lagoas, Região Geográfica Intermediária de Belo Horizonte, Minas Gerais, Brasil",
    "lat": -19.466111,
    "lng": -44.246944,
    "query": "SETE LAGOAS, Minas Gerais, Brasil",
    "source": "city",
    "status": "ok",
    "uf": "MG"
  },
  "aldeia pataxó ibiruçu|carmésia|mg": {
    "query": "ALDEIA PATAXÓ IBIRUÇU, CARMÉSIA, Minas Gerais, Brasil",
    "status": "miss"
  },
  "alfredo dias|francisco sá|mg": {
    "query": "ALFREDO DIAS, FRANCISCO SÁ, Minas Gerais, Brasil",
    "status": "miss"
  },
  "algodões|janaúba|mg": {
    "display_name": "Algodões, Janaúba, Região Geográfica Imediata de Janaúba, Região Geográfica Intermediária de Montes Claros, Minas Gerais, Brasil",
    "lat": -15.8396139,
    "lng": -43.3001233,
    "query": "ALGODÕES, JANAÚBA, Minas Gerais, Brasil",
    "source": "neighborhood",
    "status": "ok",
    "uf": "MG"
  },
  "alice maia|montes claros|mg": {
    "display_name": "Alice Maia, Montes Claros, Minas Gerais, Região Sudeste, 39400-217, Brasil",
    "lat": -16.707195,
    "lng": -43.8536225,
    "query": "ALICE MAIA, MONTES CLAROS, Minas Gerais, Brasil",
    "source": "neighborhood",
    "status": "ok",
    "uf": "MG"
  },
  "alta floresta|vargem grande do rio pardo|mg": {
    "display_name": "Posto Alta Floresta, 900, Avenida Belo Horizonte, Vargem Grande do Rio Pardo, Minas Gerais, Região Sudeste, 39535-000, Brasil",
    "lat": -15.4063997,
    "lng": -42.3099087,
    "query": "ALTA FLORESTA, VARGEM GRANDE DO RIO PARDO, Minas Gerais, Brasil",
    "source": "neighborhood",
    "status": "ok",
    "uf": "MG"
  },
  "alto da bela vista|são gotardo|mg": {
    "query": "ALTO DA BELA VISTA, SÃO GOTARDO, Minas Gerais, Brasil",
    "status": "miss"
  },
  "alto da boa vista|monte carmelo|mg": {
    "query": "ALTO DA BOA VISTA, MONTE CARMELO, Minas Gerais, Brasil",
    "status": "miss"
  },
  "alto da cruz|ouro preto|mg": {
    "display_name": "Alto da Cruz, Ouro Preto, Minas Gerais, Região Sudeste, 35406-111, Brasil",
    "lat": -20.38593,
    "lng": -43.4930913,
    "query": "ALTO DA CRUZ, OURO PRETO, Minas Gerais, Brasil",
    "source": "neighborhood",
    "status": "ok",
    "uf": "MG"
  },
  "alto das flores|betim|mg": {
    "display_name": "Alto das Flores, Regional Norte, Betim, Minas Gerais, Região Sudeste, Brasil",
    "lat": -19.9354761,
    "lng": -44.1857611,
    "query": "ALTO DAS FLORES, BETIM, Minas Gerais, Brasil",
    "source": "neighborhood",
    "status": "ok",
    "uf": "MG"
  },
  "alto das mercês|campo belo|mg": {
    "query": "ALTO DAS MERCÊS, CAMPO BELO, Minas Gerais, Brasil",
    "status": "miss"
  },
  "alto do rosário|itapecerica|mg": {
    "query": "ALTO DO ROSÁRIO, ITAPECERICA, Minas Gerais, Brasil",
    "status": "miss"
  },
  "alto dos passos|juiz de fora|mg": {
    "display_name": "Alto dos Passos, Juiz de Fora, Região Geográfica Imediata de Juiz de Fora, Região Geográfica Intermediária de Juiz de Fora, Minas Gerais, Região Sudeste, Brasil",
    "lat": -21.7762548,
    "lng": -43.3474599,
    "query": "Alto dos Passos, Juiz de Fora, Minas Gerais, Brasil",
    "source": "neighborhood",
    "status": "ok",
    "uf": "MG"
  },
  "alto dos pirineus|leopoldina|mg": {
    "display_name": "Leopoldina, Região Geográfica Imediata de Cataguases, Região Geográfica Intermediária de Juiz de Fora, Minas Gerais, 36700-192, Brasil",
    "lat": -21.5314282,
    "lng": -42.6403534,
    "query": "LEOPOLDINA, Minas Gerais, Brasil",
    "source": "city",
    "status": "ok",
    "uf": "MG"
  },
  "alto sta cruz|itinga|mg": {
    "display_name": "Rua Alto São João, Santo Antônio do Itinga, Santa Cruz de Salinas, Região Geográfica Imediata de Salinas, Região Geográfica Intermediária de Montes Claros, Minas Gerais, Brasil",
    "lat": -16.1233602,
    "lng": -41.8027717,
    "query": "ALTO STA CRUZ, ITINGA, Minas Gerais, Brasil",
    "source": "neighborhood",
    "status": "ok",
    "uf": "MG"
  },
  "alto são joão|espinosa|mg": {
    "display_name": "Espinosa, Região Geográfica Imediata de Espinosa, Região Geográfica Intermediária de Montes Claros, Minas Gerais, 39510-000, Brasil",
    "lat": -14.9232007,
    "lng": -42.8093337,
    "query": "ESPINOSA, Minas Gerais, Brasil",
    "source": "city",
    "status": "ok",
    "uf": "MG"
  },
  "alto são joão|mato verde|mg": {
    "query": "ALTO SÃO JOÃO, MATO VERDE, Minas Gerais, Brasil",
    "status": "miss"
  },
  "alto são joão|montes claros|mg": {
    "display_name": "Alto São João, Montes Claros, Minas Gerais, Região Sudeste, Brasil",
    "lat": -16.7151826,
    "lng": -43.854449,
    "query": "ALTO SÃO JOÃO, MONTES CLAROS, Minas Gerais, Brasil",
    "source": "neighborhood",
    "status": "ok",
    "uf": "MG"
  },
  "alto são joão|são joão do paraíso|mg": {
    "display_name": "Alto do Carioca, São João do Paraíso, Minas Gerais, Região Sudeste, Brasil",
    "lat": -15.3741389,
    "lng": -41.9993249,
    "query": "ALTO SÃO JOÃO, SÃO JOÃO DO PARAÍSO, Minas Gerais, Brasil",
    "source": "neighborhood",
    "status": "ok",
    "uf": "MG"
  },
  "alto são vicente|virgem da lapa|mg": {
    "query": "ALTO SÃO VICENTE, VIRGEM DA LAPA, Minas Gerais, Brasil",
    "status": "miss"
  },
  "alto vera cruz|belo horizonte|mg": {
    "display_name": "Alto Vera Cruz, Regional Leste, Belo Horizonte, Região Geográfica Imediata de Belo Horizonte, Região Metropolitana de Belo Horizonte, Região Geográfica Intermediária de Belo Horizonte, Minas Gerais, Brasil",
    "lat": -19.9103984,
    "lng": -43.8910444,
    "query": "ALTO VERA CRUZ, BELO HORIZONTE, Minas Gerais, Brasil",
    "source": "neighborhood",
    "status": "ok",
    "uf": "MG"
  },
  "alvorada industrial|são joaquim de bicas|mg": {
    "display_name": "Alvorada Industrial, São Joaquim de Bicas, Minas Gerais, Região Sudeste, 32510-182, Brasil",
    "lat": -20.0613981,
    "lng": -44.2784732,
    "query": "ALVORADA INDUSTRIAL, SÃO JOAQUIM DE BICAS, Minas Gerais, Brasil",
    "source": "neighborhood",
    "status": "ok",
    "uf": "MG"
  },
  "alvorada|betim|mg": {
    "display_name": "Alvorada, Regional Teresópolis, Vila Universal, Betim, Minas Gerais, Região Sudeste, Brasil",
    "lat": -19.9387997,
    "lng": -44.0976353,
    "query": "ALVORADA, BETIM, Minas Gerais, Brasil",
    "source": "neighborhood",
    "status": "ok",
    "uf": "MG"
  },
  "alvorada|contagem|mg": {
    "display_name": "Alvorada, Sede, Contagem, Região Geográfica Imediata de Belo Horizonte, Região Metropolitana de Belo Horizonte, Região Geográfica Intermediária de Belo Horizonte, Minas Gerais, 32042-080, Brasil",
    "lat": -19.9044781,
    "lng": -44.0793923,
    "query": "ALVORADA, CONTAGEM, Minas Gerais, Brasil",
    "source": "neighborhood",
    "status": "ok",
    "uf": "MG"
  },
  "alvorada|divinópolis|mg": {
    "display_name": "Alvorada, Divinópolis, Minas Gerais, Região Sudeste, Brasil",
    "lat": -20.1167326,
    "lng": -44.8965308,
    "query": "ALVORADA, Divinópolis, Minas Gerais, Brasil",
    "source": "neighborhood",
    "status": "ok",
    "uf": "MG"
  },
  "alvorada|itaobim|mg": {
    "query": "ALVORADA, ITAOBIM, Minas Gerais, Brasil",
    "status": "miss"
  },
  "alvorada|ituiutaba|mg": {
    "display_name": "Alvorada, Ituiutaba, Minas Gerais, Região Sudeste, 38307-102, Brasil",
    "lat": -18.9706754,
    "lng": -49.4805417,
    "query": "ALVORADA, ITUIUTABA, Minas Gerais, Brasil",
    "source": "neighborhood",
    "status": "ok",
    "uf": "MG"
  },
  "alvorada|jequitinhonha|mg": {
    "display_name": "Jequitinhonha, Região Geográfica Imediata de Almenara, Região Geográfica Intermediária de Teófilo Otoni, Minas Gerais, Brasil",
    "lat": -16.4335098,
    "lng": -41.0035557,
    "query": "JEQUITINHONHA, Minas Gerais, Brasil",
    "source": "city",
    "status": "ok",
    "uf": "MG"
  },
  "alvorada|joão monlevade|mg": {
    "display_name": "Alvorada, João Monlevade, Minas Gerais, Região Sudeste, 35930-027, Brasil",
    "lat": -19.811647,
    "lng": -43.1777451,
    "query": "ALVORADA, JOÃO MONLEVADE, Minas Gerais, Brasil",
    "source": "neighborhood",
    "status": "ok",
    "uf": "MG"
  },
  "alvorada|patos de minas|mg": {
    "display_name": "Alvorada, Patos de Minas, Minas Gerais, Região Sudeste, Brasil",
    "lat": -18.5620668,
    "lng": -46.5279276,
    "query": "ALVORADA, PATOS DE MINAS, Minas Gerais, Brasil",
    "source": "neighborhood",
    "status": "ok",
    "uf": "MG"
  },
  "alvorada|peçanha|mg": {
    "display_name": "Alvorada, Peçanha, Minas Gerais, Região Sudeste, 38700-000, Brasil",
    "lat": -18.5532998,
    "lng": -42.5584547,
    "query": "ALVORADA, PEÇANHA, Minas Gerais, Brasil",
    "source": "neighborhood",
    "status": "ok",
    "uf": "MG"
  },
  "alípio de melo|belo horizonte|mg": {
    "display_name": "Alípio de Melo, Pampulha, Belo Horizonte, Minas Gerais, Região Sudeste, Brasil",
    "lat": -19.8922607,
    "lng": -44.0034587,
    "query": "ALÍPIO DE MELO, BELO HORIZONTE, Minas Gerais, Brasil",
    "source": "neighborhood",
    "status": "ok",
    "uf": "MG"
  },
  "amaral|carmópolis de minas|mg": {
    "display_name": "Amaral, Carmópolis de Minas, Minas Gerais, Região Sudeste, 35534-000, Brasil",
    "lat": -20.5407664,
    "lng": -44.6404713,
    "query": "AMARAL, CARMÓPOLIS DE MINAS, Minas Gerais, Brasil",
    "source": "neighborhood",
    "status": "ok",
    "uf": "MG"
  },
  "amarante|betim|mg": {
    "display_name": "Amarante, Regional Imbiruçu, Betim, Minas Gerais, Região Sudeste, Brasil",
    "lat": -19.9458895,
    "lng": -44.1381321,
    "query": "amarante, betim, Minas Gerais, Brasil",
    "source": "neighborhood",
    "status": "ok",
    "uf": "MG"
  },
  "amaro lanari|coronel fabriciano|mg": {
    "display_name": "Amaro Lanari, Coronel Fabriciano, Minas Gerais, Região Sudeste, Brasil",
    "lat": -19.5258119,
    "lng": -42.5774836,
    "query": "Amaro Lanari, CORONEL FABRICIANO, Minas Gerais, Brasil",
    "source": "neighborhood",
    "status": "ok",
    "uf": "MG"
  },
  "amaro ribeiro|conselheiro lafaiete|mg": {
    "display_name": "Amaro Ribeiro, Conselheiro Lafaiete, Minas Gerais, Região Sudeste, 36401-002, Brasil",
    "lat": -20.6979525,
    "lng": -43.8066179,
    "query": "AMARO RIBEIRO, CONSELHEIRO LAFAIETE, Minas Gerais, Brasil",
    "source": "neighborhood",
    "status": "ok",
    "uf": "MG"
  },
  "amazonas|betim|mg": {
    "display_name": "Amazonas, Regional Teresópolis, Betim, Região Geográfica Imediata de Belo Horizonte, Região Metropolitana de Belo Horizonte, Região Geográfica Intermediária de Belo Horizonte, Minas Gerais, Região Sudeste, Brasil",
    "lat": -19.9479561,
    "lng": -44.0999228,
    "query": "AMAZONAS, BETIM, Minas Gerais, Brasil",
    "source": "neighborhood",
    "status": "ok",
    "uf": "MG"
  },
  "amazonas|contagem|mg": {
    "display_name": "Amazonas 1ª Seção, Bairro Amazonas, Parque Industrial, Contagem, Região Geográfica Imediata de Belo Horizonte, Região Metropolitana de Belo Horizonte, Região Geográfica Intermediária de Belo Horizonte, Minas Gerais, Brasil",
    "lat": -19.9669025,
    "lng": -44.0432327,
    "query": "AMAZONAS, CONTAGEM, Minas Gerais, Brasil",
    "source": "neighborhood",
    "status": "ok",
    "uf": "MG"
  },
  "amorim|araguari|mg": {
    "display_name": "Amorim, Araguari, Minas Gerais, Região Sudeste, Brasil",
    "lat": -18.665215,
    "lng": -48.1785831,
    "query": "AMORIM, ARAGUARI, Minas Gerais, Brasil",
    "source": "neighborhood",
    "status": "ok",
    "uf": "MG"
  },
  "ana lúcia|sabará|mg": {
    "display_name": "Ana Lúcia, Carvalho de Brito, Sabará, Minas Gerais, Região Sudeste, 34710-160, Brasil",
    "lat": -19.8789517,
    "lng": -43.905106,
    "query": "ANA LÚCIA, SABARÁ, Minas Gerais, Brasil",
    "source": "neighborhood",
    "status": "ok",
    "uf": "MG"
  },
  "ana moura|timóteo|mg": {
    "display_name": "Ana Moura, Timóteo, Minas Gerais, Região Sudeste, Brasil",
    "lat": -19.5698947,
    "lng": -42.6688769,
    "query": "ANA MOURA, TIMÓTEO, Minas Gerais, Brasil",
    "source": "neighborhood",
    "status": "ok",
    "uf": "MG"
  },
  "anastácio roque|novo cruzeiro|mg": {
    "query": "ANASTÁCIO ROQUE, NOVO CRUZEIRO, Minas Gerais, Brasil",
    "status": "miss"
  },
  "angola|betim|mg": {
    "display_name": "Angola, Regional Sede, Betim, Minas Gerais, Região Sudeste, Brasil",
    "lat": -19.9594291,
    "lng": -44.2022735,
    "query": "ANGOLA, BETIM, Minas Gerais, Brasil",
    "source": "neighborhood",
    "status": "ok",
    "uf": "MG"
  },
  "aparecida|belo horizonte|mg": {
    "display_name": "Aparecida, Regional Noroeste, Belo Horizonte, Minas Gerais, Região Sudeste, 31230-590, Brasil",
    "lat": -19.8944027,
    "lng": -43.9565162,
    "query": "APARECIDA, BELO HORIZONTE, Minas Gerais, Brasil",
    "source": "neighborhood",
    "status": "ok",
    "uf": "MG"
  },
  "aparecida|uberlândia|mg": {
    "display_name": "Nossa Senhora Aparecida, Setor Central, Uberlândia, Minas Gerais, Região Sudeste, Brasil",
    "lat": -18.9053548,
    "lng": -48.2674629,
    "query": "APARECIDA, UBERLÂNDIA, Minas Gerais, Brasil",
    "source": "neighborhood",
    "status": "ok",
    "uf": "MG"
  },
  "araças|capim branco|mg": {
    "display_name": "Araçás, Capim Branco, Minas Gerais, Região Sudeste, Brasil",
    "lat": -19.53103,
    "lng": -44.113297,
    "query": "ARAÇAS, CAPIM BRANCO, Minas Gerais, Brasil",
    "source": "neighborhood",
    "status": "ok",
    "uf": "MG"
  },
  "area f - nh1|jaíba|mg": {
    "display_name": "Núcleo Habitacional 1 - Área F, Jaíba, Minas Gerais, Região Sudeste, Brasil",
    "lat": -15.1210178,
    "lng": -43.9488983,
    "query": "AREA F - NH1, JAÍBA, Minas Gerais, Brasil",
    "source": "neighborhood",
    "status": "ok",
    "uf": "MG"
  },
  "areado|lajinha|mg": {
    "display_name": "Areado, Lajinha, Região Geográfica Imediata de Manhuaçu, Região Geográfica Intermediária de Juiz de Fora, Minas Gerais, Brasil",
    "lat": -20.1662239,
    "lng": -41.6467442,
    "query": "AREADO, LAJINHA, Minas Gerais, Brasil",
    "source": "neighborhood",
    "status": "ok",
    "uf": "MG"
  },
  "areias brancas|formiga|mg": {
    "display_name": "Mercearia Areias Brancas, 171, Rua José Alves Pereira, Formiga, Região Geográfica Imediata de Formiga, Região Geográfica Intermediária de Divinópolis, Minas Gerais, 35570-000, Brasil",
    "lat": -20.4669677,
    "lng": -45.4382539,
    "query": "AREIAS BRANCAS, FORMIGA, Minas Gerais, Brasil",
    "source": "neighborhood",
    "status": "ok",
    "uf": "MG"
  },
  "areias|ribeirão das neves|mg": {
    "display_name": "Areias, Justinópolis, Ribeirão das Neves, Minas Gerais, Região Sudeste, 33927-005, Brasil",
    "lat": -19.7602816,
    "lng": -44.0021591,
    "query": "AREIAS, RIBEIRÃO DAS NEVES, Minas Gerais, Brasil",
    "source": "neighborhood",
    "status": "ok",
    "uf": "MG"
  },
  "aristides vieira de mendonça|três pontas|mg": {
    "display_name": "Aristides Vieira de Mendonça, Três Pontas, Região Geográfica Imediata de Três Pontas - Boa Esperança, Região Geográfica Intermediária de Varginha, Minas Gerais, 37190-000, Brasil",
    "lat": -21.3814806,
    "lng": -45.5210377,
    "query": "ARISTIDES VIEIRA DE MENDONÇA, TRÊS PONTAS, Minas Gerais, Brasil",
    "source": "neighborhood",
    "status": "ok",
    "uf": "MG"
  },
  "atalaia|ribeirão das neves|mg": {
    "display_name": "Atalaia, Justinópolis, Ribeirão das Neves, Minas Gerais, Região Sudeste, 33930-700, Brasil",
    "lat": -19.7922453,
    "lng": -44.0067652,
    "query": "ATALAIA, RIBEIRÃO DAS NEVES, Minas Gerais, Brasil",
    "source": "neighborhood",
    "status": "ok",
    "uf": "MG"
  },
  "augusta mota|montes claros|mg": {
    "display_name": "Augusta Mota, Montes Claros, Minas Gerais, Região Sudeste, 39403-222, Brasil",
    "lat": -16.7455484,
    "lng": -43.882599,
    "query": "AUGUSTA MOTA, MONTES CLAROS, Minas Gerais, Brasil",
    "source": "neighborhood",
    "status": "ok",
    "uf": "MG"
  },
  "avenida|itajubá|mg": {
    "display_name": "Avenida, Itajubá, Minas Gerais, Região Sudeste, 37505-020, Brasil",
    "lat": -22.4294742,
    "lng": -45.4629575,
    "query": "AVENIDA, ITAJUBÁ, Minas Gerais, Brasil",
    "source": "neighborhood",
    "status": "ok",
    "uf": "MG"
  },
  "b-leblon|belo horizonte|mg": {
    "display_name": "Área de Lazer e Parque do bairro Jardim Leblon, Vila Várzea da Palma, Jardim Leblon, Venda Nova, Belo Horizonte, Região Geográfica Imediata de Belo Horizonte, Região Metropolitana de Belo Horizonte, Região Geográfica Intermediária de Belo Horizonte, Minas Gerais, Brasil",
    "lat": -19.8209259,
    "lng": -43.9895654,
    "query": "B-LEBLON, BELO HORIZONTE, Minas Gerais, Brasil",
    "source": "neighborhood",
    "status": "ok",
    "uf": "MG"
  },
  "bairro das flores|inhapim|mg": {
    "display_name": "Inhapim, Região Geográfica Imediata de Caratinga, Região Geográfica Intermediária de Ipatinga, Minas Gerais, Região Sudeste, Brasil",
    "lat": -19.5501834,
    "lng": -42.1209879,
    "query": "INHAPIM, Minas Gerais, Brasil",
    "source": "city",
    "status": "ok",
    "uf": "MG"
  },
  "bairro shangrila|pouso alegre|mg": {
    "display_name": "Pouso Alegre, Região Geográfica Imediata de Pouso Alegre, Região Geográfica Intermediária de Pouso Alegre, Minas Gerais, Brasil",
    "lat": -22.2343858,
    "lng": -45.9327241,
    "query": "Pouso Alegre, Minas Gerais, Brasil",
    "source": "city",
    "status": "ok",
    "uf": "MG"
  },
  "baixada|manhuaçu|mg": {
    "display_name": "Baixada, Manhuaçu, Região Geográfica Imediata de Manhuaçu, Região Geográfica Intermediária de Juiz de Fora, Minas Gerais, 36902-045, Brasil",
    "lat": -20.2500653,
    "lng": -42.0309637,
    "query": "Baixada, MANHUAÇU, Minas Gerais, Brasil",
    "source": "neighborhood",
    "status": "ok",
    "uf": "MG"
  },
  "balduíno|canápolis|mg": {
    "display_name": "Balduíno, Canápolis, Região Geográfica Imediata de Uberlândia, Região Geográfica Intermediária de Uberlândia, Minas Gerais, Brasil",
    "lat": -18.7175167,
    "lng": -49.205273,
    "query": "BALDUÍNO, CANÁPOLIS, Minas Gerais, Brasil",
    "source": "neighborhood",
    "status": "ok",
    "uf": "MG"
  },
  "bandeirantes|belo horizonte|mg": {
    "display_name": "Bandeirantes, Pampulha, Belo Horizonte, Minas Gerais, Região Sudeste, Brasil",
    "lat": -19.8579587,
    "lng": -43.9882798,
    "query": "BANDEIRANTES, BELO HORIZONTE, Minas Gerais, Brasil",
    "source": "neighborhood",
    "status": "ok",
    "uf": "MG"
  },
  "bandeirantes|contagem|mg": {
    "display_name": "Bandeirantes, Parque Industrial, Contagem, Região Geográfica Imediata de Belo Horizonte, Região Metropolitana de Belo Horizonte, Região Geográfica Intermediária de Belo Horizonte, Minas Gerais, 32240-560, Brasil",
    "lat": -19.9661406,
    "lng": -44.0498975,
    "query": "BANDEIRANTES, CONTAGEM, Minas Gerais, Brasil",
    "source": "neighborhood",
    "status": "ok",
    "uf": "MG"
  },
  "bandeirinhas|conceição do mato dentro|mg": {
    "query": "BANDEIRINHAS, CONCEIÇÃO DO MATO DENTRO, Minas Gerais, Brasil",
    "status": "miss"
  },
  "barbosa lage|juiz de fora|mg": {
    "display_name": "Barbosa Lage, Juiz de Fora, Região Geográfica Imediata de Juiz de Fora, Região Geográfica Intermediária de Juiz de Fora, Minas Gerais, Brasil",
    "lat": -21.719425,
    "lng": -43.396732,
    "query": "Barbosa Lage, JUIZ DE FORA, Minas Gerais, Brasil",
    "source": "neighborhood",
    "status": "ok",
    "uf": "MG"
  },
  "baronesa|santa luzia|mg": {
    "display_name": "Ribeirão Baronesa, Nossa Senhora das Graças, Santa Luzia, Região Geográfica Imediata de Belo Horizonte, Região Metropolitana de Belo Horizonte, Região Geográfica Intermediária de Belo Horizonte, Minas Gerais, Brasil",
    "lat": -19.7668007,
    "lng": -43.8828071,
    "query": "BARONESA, SANTA LUZIA, Minas Gerais, Brasil",
    "source": "neighborhood",
    "status": "ok",
    "uf": "MG"
  },
  "barra|januária|mg": {
    "display_name": "Barra do Jaboticaba, São Joaquim, Januária, Região Geográfica Imediata de Januária, Região Geográfica Intermediária de Montes Claros, Minas Gerais, Brasil",
    "lat": -15.5566773,
    "lng": -45.1600895,
    "query": "BARRA, JANUÁRIA, Minas Gerais, Brasil",
    "source": "neighborhood",
    "status": "ok",
    "uf": "MG"
  },
  "barra|muriaé|mg": {
    "display_name": "Barra, Muriaé, Região Geográfica Imediata de Muriaé, Região Geográfica Intermediária de Juiz de Fora, Minas Gerais, 36880-005, Brasil",
    "lat": -21.129679,
    "lng": -42.3728608,
    "query": "BARRA, MURIAÉ, Minas Gerais, Brasil",
    "source": "neighborhood",
    "status": "ok",
    "uf": "MG"
  },
  "barreirinho|ibirité|mg": {
    "display_name": "Barreirinho, Ibirité, Minas Gerais, Região Sudeste, Brasil",
    "lat": -20.028805,
    "lng": -44.0410793,
    "query": "BARREIRINHO, IBIRITÉ, Minas Gerais, Brasil",
    "source": "neighborhood",
    "status": "ok",
    "uf": "MG"
  },
  "barreiro de baixo|belo horizonte|mg": {
    "display_name": "Barreiro de Baixo, Barreiro, Belo Horizonte, Minas Gerais, Região Sudeste, Brasil",
    "lat": -19.9776891,
    "lng": -44.0192375,
    "query": "BARREIRO DE BAIXO, BELO HORIZONTE, Minas Gerais, Brasil",
    "source": "neighborhood",
    "status": "ok",
    "uf": "MG"
  },
  "barreiro de cima|sete lagoas|mg": {
    "display_name": "Barreiro de Cima, Barreiro de Sete Lagoas, Sete Lagoas, Minas Gerais, Região Sudeste, 35701-526, Brasil",
    "lat": -19.4463165,
    "lng": -44.3255384,
    "query": "BARREIRO DE CIMA, SETE LAGOAS, Minas Gerais, Brasil",
    "source": "neighborhood",
    "status": "ok",
    "uf": "MG"
  },
  "barreiro do rio verde|verdelândia|mg": {
    "display_name": "Barreiro do Rio Verde, Verdelândia, Região Geográfica Imediata de Janaúba, Região Geográfica Intermediária de Montes Claros, Minas Gerais, Brasil",
    "lat": -15.6132206,
    "lng": -43.600507,
    "query": "BARREIRO DO RIO VERDE, VERDELÂNDIA, Minas Gerais, Brasil",
    "source": "neighborhood",
    "status": "ok",
    "uf": "MG"
  },
  "barreiro|belo horizonte|mg": {
    "display_name": "Barreiro, Belo Horizonte, Região Geográfica Imediata de Belo Horizonte, Região Metropolitana de Belo Horizonte, Região Geográfica Intermediária de Belo Horizonte, Minas Gerais, Brasil",
    "lat": -20.0035117,
    "lng": -44.0053391,
    "query": "BARREIRO, BELO HORIZONTE, Minas Gerais, Brasil",
    "source": "neighborhood",
    "status": "ok",
    "uf": "MG"
  },
  "barro preto|belo horizonte|mg": {
    "display_name": "Barro Preto, Regional Centro-Sul, Belo Horizonte, Minas Gerais, Região Sudeste, Brasil",
    "lat": -19.9233816,
    "lng": -43.9520143,
    "query": "BARRO PRETO, BELO HORIZONTE, Minas Gerais, Brasil",
    "source": "neighborhood",
    "status": "ok",
    "uf": "MG"
  },
  "bauxita|ouro preto|mg": {
    "display_name": "Bauxita, Ouro Preto, Minas Gerais, Região Sudeste, 35402-191, Brasil",
    "lat": -20.4000266,
    "lng": -43.5059818,
    "query": "BAUXITA, OURO PRETO, Minas Gerais, Brasil",
    "source": "neighborhood",
    "status": "ok",
    "uf": "MG"
  },
  "bela vista|aracagi|pb": {
    "query": "BELA VISTA, Aracagi, Paraíba, Brasil",
    "status": "miss"
  },
  "bela vista|berilo|mg": {
    "display_name": "Bela Vista, Berilo, Minas Gerais, Região Sudeste, Brasil",
    "lat": -16.9523066,
    "lng": -42.4660957,
    "query": "BELA VISTA, BERILO, Minas Gerais, Brasil",
    "source": "neighborhood",
    "status": "ok",
    "uf": "MG"
  },
  "bela vista|caratinga|mg": {
    "display_name": "Bela Vista, São Domingos das Dores, Região Geográfica Imediata de Caratinga, Região Geográfica Intermediária de Ipatinga, Minas Gerais, 35335-000, Brasil",
    "lat": -19.5225574,
    "lng": -42.0161493,
    "query": "BELA VISTA, CARATINGA, Minas Gerais, Brasil",
    "source": "neighborhood",
    "status": "ok",
    "uf": "MG"
  },
  "bela vista|cataguases|mg": {
    "display_name": "Bela Vista, Imigrantes, Cataguases, Região Geográfica Imediata de Cataguases, Região Geográfica Intermediária de Juiz de Fora, Minas Gerais, 36770-070, Brasil",
    "lat": -21.3870095,
    "lng": -42.6888478,
    "query": "BELA VISTA, CATAGUASES, Minas Gerais, Brasil",
    "source": "neighborhood",
    "status": "ok",
    "uf": "MG"
  },
  "bela vista|curvelo|mg": {
    "display_name": "Bela Vista, Curvelo, Minas Gerais, Região Sudeste, 35790-000, Brasil",
    "lat": -18.7651419,
    "lng": -44.437058,
    "query": "BELA VISTA, CURVELO, Minas Gerais, Brasil",
    "source": "neighborhood",
    "status": "ok",
    "uf": "MG"
  },
  "bela vista|diamantina|mg": {
    "display_name": "Rua Bela Vista, Desembargador Otoni, Diamantina, Minas Gerais, Região Sudeste, Brasil",
    "lat": -17.6930385,
    "lng": -43.3383361,
    "query": "BELA VISTA, DIAMANTINA, Minas Gerais, Brasil",
    "source": "neighborhood",
    "status": "ok",
    "uf": "MG"
  },
  "bela vista|divinópolis|mg": {
    "display_name": "Bela Vista, Divinópolis, Minas Gerais, Região Sudeste, Brasil",
    "lat": -20.1718684,
    "lng": -44.9047411,
    "query": "BELA VISTA, DIVINÓPOLIS, Minas Gerais, Brasil",
    "source": "neighborhood",
    "status": "ok",
    "uf": "MG"
  },
  "bela vista|ipatinga|mg": {
    "display_name": "Bela Vista, Ipatinga, Minas Gerais, Região Sudeste, Brasil",
    "lat": -19.505423,
    "lng": -42.546642,
    "query": "BELA VISTA, IPATINGA, Minas Gerais, Brasil",
    "source": "neighborhood",
    "status": "ok",
    "uf": "MG"
  },
  "bela vista|joaíma|mg": {
    "display_name": "Fazenda Bela Vista, Joaíma, Região Geográfica Imediata de Almenara, Região Geográfica Intermediária de Teófilo Otoni, Minas Gerais, Brasil",
    "lat": -16.7659604,
    "lng": -40.7534409,
    "query": "BELA VISTA, JOAÍMA, Minas Gerais, Brasil",
    "source": "neighborhood",
    "status": "ok",
    "uf": "MG"
  },
  "bela vista|lagoa santa|mg": {
    "display_name": "Bela Vista, Lagoa Santa, Região Geográfica Imediata de Belo Horizonte, Região Metropolitana de Belo Horizonte, Região Geográfica Intermediária de Belo Horizonte, Minas Gerais, 33239-206, Brasil",
    "lat": -19.639513,
    "lng": -43.9058319,
    "query": "BELA VISTA, LAGOA SANTA, Minas Gerais, Brasil",
    "source": "neighborhood",
    "status": "ok",
    "uf": "MG"
  },
  "bela vista|leopoldina|mg": {
    "display_name": "Fazenda Bela Vista, Tebas, Leopoldina, Região Geográfica Imediata de Cataguases, Região Geográfica Intermediária de Juiz de Fora, Minas Gerais, Brasil",
    "lat": -21.6113459,
    "lng": -42.7607693,
    "query": "BELA VISTA, LEOPOLDINA, Minas Gerais, Brasil",
    "source": "neighborhood",
    "status": "ok",
    "uf": "MG"
  },
  "bela vista|ouro fino|mg": {
    "display_name": "Escola Estadual Professor Guerino Casasanta, 2009, Rua Treze de Maio, Centro, Ouro Fino, Região Geográfica Imediata de Pouso Alegre, Região Geográfica Intermediária de Pouso Alegre, Minas Gerais, 37570-000, Brasil",
    "lat": -22.2865338,
    "lng": -46.3810198,
    "query": "RUA TREZE DE MAIO, 2009, BELA VISTA, OURO FINO, Minas Gerais, Brasil",
    "source": "address",
    "status": "ok",
    "uf": "MG"
  },
  "bela vista|teófilo otoni|mg": {
    "display_name": "Bela Vista, Teófilo Otoni, Minas Gerais, Região Sudeste, Brasil",
    "lat": -17.8457333,
    "lng": -41.5111989,
    "query": "BELA VISTA, TEÓFILO OTONI, Minas Gerais, Brasil",
    "source": "neighborhood",
    "status": "ok",
    "uf": "MG"
  },
  "belmonte|belo horizonte|mg": {
    "display_name": "Belmonte, Regional Nordeste, Belo Horizonte, Minas Gerais, Região Sudeste, Brasil",
    "lat": -19.8465711,
    "lng": -43.9012614,
    "query": "BELMONTE, BELO HORIZONTE, Minas Gerais, Brasil",
    "source": "neighborhood",
    "status": "ok",
    "uf": "MG"
  },
  "belo horizonte|buritizeiro|mg": {
    "display_name": "Belo Horizonte, Buritizeiro, Região Geográfica Imediata de Pirapora, Região Geográfica Intermediária de Montes Claros, Minas Gerais, 39280-000, Brasil",
    "lat": -17.378381,
    "lng": -44.9682433,
    "query": "BELO HORIZONTE, BURITIZEIRO, Minas Gerais, Brasil",
    "source": "neighborhood",
    "status": "ok",
    "uf": "MG"
  },
  "belo vale|divinópolis|mg": {
    "display_name": "Belo Vale, Divinópolis, Minas Gerais, Região Sudeste, Brasil",
    "lat": -20.1239696,
    "lng": -44.9310911,
    "query": "BELO VALE, DIVINÓPOLIS, Minas Gerais, Brasil",
    "source": "neighborhood",
    "status": "ok",
    "uf": "MG"
  },
  "belo vale|santa luzia|mg": {
    "display_name": "Cemitério e Crematório Belo Vale, Duquesa I, São Benedito, Santa Luzia, Minas Gerais, Região Sudeste, Brasil",
    "lat": -19.7767373,
    "lng": -43.9109605,
    "query": "BELO VALE, SANTA LUZIA, Minas Gerais, Brasil",
    "source": "neighborhood",
    "status": "ok",
    "uf": "MG"
  },
  "belo vale|sete lagoas|mg": {
    "display_name": "Praça Belo Vale, Loteamento Quintas da Varginha, Sete Lagoas, Minas Gerais, Região Sudeste, Brasil",
    "lat": -19.5888476,
    "lng": -44.2280468,
    "query": "BELO VALE, SETE LAGOAS, Minas Gerais, Brasil",
    "source": "neighborhood",
    "status": "ok",
    "uf": "MG"
  },
  "belvedere|divinópolis|mg": {
    "display_name": "Jardim Belvedere, Divinópolis, Minas Gerais, Região Sudeste, Brasil",
    "lat": -20.1771857,
    "lng": -44.9018228,
    "query": "BELVEDERE, DIVINÓPOLIS, Minas Gerais, Brasil",
    "source": "neighborhood",
    "status": "ok",
    "uf": "MG"
  },
  "benfica|juiz de fora|mg": {
    "display_name": "Benfica, Juiz de Fora, Região Geográfica Imediata de Juiz de Fora, Região Geográfica Intermediária de Juiz de Fora, Minas Gerais, Região Sudeste, Brasil",
    "lat": -21.6902673,
    "lng": -43.4361424,
    "query": "Benfica, JUIZ DE FORA, Minas Gerais, Brasil",
    "source": "neighborhood",
    "status": "ok",
    "uf": "MG"
  },
  "benfica|minas novas|mg": {
    "display_name": "Minas Novas, Região Geográfica Imediata de Capelinha, Região Geográfica Intermediária de Teófilo Otoni, Minas Gerais, 39650-000, Brasil",
    "lat": -17.2174708,
    "lng": -42.5948332,
    "query": "MINAS NOVAS, Minas Gerais, Brasil",
    "source": "city",
    "status": "ok",
    "uf": "MG"
  },
  "bento ferreira|vitória|es": {
    "display_name": "Bento Ferreira, Vitória, Espírito Santo, Região Sudeste, Brasil",
    "lat": -20.3153408,
    "lng": -40.3069497,
    "query": "Bento Ferreira, Vitória, Espírito Santo, Brasil",
    "source": "neighborhood",
    "status": "ok",
    "uf": "ES"
  },
  "bernardo monteiro|contagem|mg": {
    "display_name": "Bernardo Monteiro, Sede, Contagem, Região Geográfica Imediata de Belo Horizonte, Região Metropolitana de Belo Horizonte, Região Geográfica Intermediária de Belo Horizonte, Minas Gerais, Brasil",
    "lat": -19.9325254,
    "lng": -44.0862893,
    "query": "Bernardo Monteiro, Contagem, Minas Gerais, Brasil",
    "source": "neighborhood",
    "status": "ok",
    "uf": "MG"
  },
  "bethânea|ipatinga|mg": {
    "query": "BETHÂNEA, IPATINGA, Minas Gerais, Brasil",
    "status": "miss"
  },
  "bethânia|ipatinga|mg": {
    "display_name": "Bethânia, Ipatinga, Região Geográfica Imediata de Ipatinga, Região Metropolitana do Vale do Aço, Região Geográfica Intermediária de Ipatinga, Minas Gerais, 35164-093, Brasil",
    "lat": -19.4355359,
    "lng": -42.5529457,
    "query": "BETHÂNIA, IPATINGA, Minas Gerais, Brasil",
    "source": "neighborhood",
    "status": "ok",
    "uf": "MG"
  },
  "betim industrial|betim|mg": {
    "display_name": "Betim Industrial, Regional Alterosas, Betim, Minas Gerais, Região Sudeste, Brasil",
    "lat": -19.9603572,
    "lng": -44.1689433,
    "query": "BETIM INDUSTRIAL, BETIM, Minas Gerais, Brasil",
    "source": "neighborhood",
    "status": "ok",
    "uf": "MG"
  },
  "betânia|belo horizonte|mg": {
    "display_name": "Betânia, Regional Oeste, Belo Horizonte, Minas Gerais, Região Sudeste, 30580-040, Brasil",
    "lat": -19.9586109,
    "lng": -43.9922251,
    "query": "BETÂNIA, BELO HORIZONTE, Minas Gerais, Brasil",
    "source": "neighborhood",
    "status": "ok",
    "uf": "MG"
  },
  "boa esperança|santa luzia|mg": {
    "display_name": "Boa Esperança, Santa Luzia, Região Geográfica Imediata de Belo Horizonte, Região Metropolitana de Belo Horizonte, Região Geográfica Intermediária de Belo Horizonte, Minas Gerais, 30010-200, Brasil",
    "lat": -19.7648274,
    "lng": -43.8659593,
    "query": "BOA ESPERANÇA, SANTA LUZIA, Minas Gerais, Brasil",
    "source": "neighborhood",
    "status": "ok",
    "uf": "MG"
  },
  "boa ventura|três corações|mg": {
    "display_name": "Boa Ventura, Três Corações, Minas Gerais, Região Sudeste, 37410-000, Brasil",
    "lat": -21.6915431,
    "lng": -45.2488596,
    "query": "BOA VENTURA, TRÊS CORAÇÕES, Minas Gerais, Brasil",
    "source": "neighborhood",
    "status": "ok",
    "uf": "MG"
  },
  "boa vista|belo horizonte|mg": {
    "display_name": "Boa Vista, Regional Leste, Belo Horizonte, Região Geográfica Imediata de Belo Horizonte, Região Metropolitana de Belo Horizonte, Região Geográfica Intermediária de Belo Horizonte, Minas Gerais, Brasil",
    "lat": -19.8940712,
    "lng": -43.9036739,
    "query": "BOA VISTA, BELO HORIZONTE, Minas Gerais, Brasil",
    "source": "neighborhood",
    "status": "ok",
    "uf": "MG"
  },
  "boa vista|janaúba|mg": {
    "display_name": "Boa Vista, Janaúba, Região Geográfica Imediata de Janaúba, Região Geográfica Intermediária de Montes Claros, Minas Gerais, Brasil",
    "lat": -15.8002647,
    "lng": -43.3269024,
    "query": "BOA VISTA, JANAÚBA, Minas Gerais, Brasil",
    "source": "neighborhood",
    "status": "ok",
    "uf": "MG"
  },
  "boa vista|juatuba|mg": {
    "display_name": "Boa Vista da Serra, Juatuba, Minas Gerais, Região Sudeste, Brasil",
    "lat": -19.9341633,
    "lng": -44.4096961,
    "query": "BOA VISTA, JUATUBA, Minas Gerais, Brasil",
    "source": "neighborhood",
    "status": "ok",
    "uf": "MG"
  },
  "boa vista|matipó|mg": {
    "display_name": "Rua Boa Vista, Matipó, Região Geográfica Imediata de Manhuaçu, Região Geográfica Intermediária de Juiz de Fora, Minas Gerais, Brasil",
    "lat": -20.2844816,
    "lng": -42.3459058,
    "query": "Boa Vista, MATIPÓ, Minas Gerais, Brasil",
    "source": "neighborhood",
    "status": "ok",
    "uf": "MG"
  },
  "boa vista|sete lagoas|mg": {
    "display_name": "Boa Vista, Sete Lagoas, Região Geográfica Imediata de Sete Lagoas, Região Geográfica Intermediária de Belo Horizonte, Minas Gerais, 35700-116, Brasil",
    "lat": -19.4587831,
    "lng": -44.2368379,
    "query": "BOA VISTA, SETE LAGOAS, Minas Gerais, Brasil",
    "source": "neighborhood",
    "status": "ok",
    "uf": "MG"
  },
  "bom jardim-|manhuaçu|mg": {
    "display_name": "Bom Jardim, Bela Vista, Manhuaçu, Região Geográfica Imediata de Manhuaçu, Região Geográfica Intermediária de Juiz de Fora, Minas Gerais, 36906-256, Brasil",
    "lat": -20.2746695,
    "lng": -42.0407813,
    "query": "Bom Jardim-, MANHUAÇU, Minas Gerais, Brasil",
    "source": "neighborhood",
    "status": "ok",
    "uf": "MG"
  },
  "bom jardim|diamantina|mg": {
    "query": "BOM JARDIM, DIAMANTINA, Minas Gerais, Brasil",
    "status": "miss"
  },
  "bom jardim|ipatinga|mg": {
    "display_name": "Bom Jardim, Ipatinga, Região Geográfica Imediata de Ipatinga, Região Metropolitana do Vale do Aço, Região Geográfica Intermediária de Ipatinga, Minas Gerais, 35162-292, Brasil",
    "lat": -19.4788037,
    "lng": -42.5802133,
    "query": "BOM JARDIM, IPATINGA, Minas Gerais, Brasil",
    "source": "neighborhood",
    "status": "ok",
    "uf": "MG"
  },
  "bom jardim|mário campos|mg": {
    "display_name": "Bom Jardim, Bela Vista, Mário Campos, Minas Gerais, Região Sudeste, 32470-000, Brasil",
    "lat": -20.0655856,
    "lng": -44.1595234,
    "query": "BOM JARDIM, MÁRIO CAMPOS, Minas Gerais, Brasil",
    "source": "neighborhood",
    "status": "ok",
    "uf": "MG"
  },
  "bom jardim|taiobeiras|mg": {
    "display_name": "Rua Bom Jardim, Centro, Taiobeiras, Minas Gerais, Região Sudeste, 39550-000, Brasil",
    "lat": -15.8155206,
    "lng": -42.2316304,
    "query": "BOM JARDIM, TAIOBEIRAS, Minas Gerais, Brasil",
    "source": "neighborhood",
    "status": "ok",
    "uf": "MG"
  },
  "bom jesus|belo horizonte|mg": {
    "display_name": "Senhor Bom Jesus, Regional Noroeste, Belo Horizonte, Minas Gerais, Região Sudeste, Brasil",
    "lat": -19.8959529,
    "lng": -43.9544094,
    "query": "BOM JESUS, BELO HORIZONTE, Minas Gerais, Brasil",
    "source": "neighborhood",
    "status": "ok",
    "uf": "MG"
  },
  "bom jesus|diamantina|mg": {
    "display_name": "Praça Bom Jesus, Baixadão, Planalto de Minas, Diamantina, Minas Gerais, Região Sudeste, Brasil",
    "lat": -17.4774987,
    "lng": -43.2679371,
    "query": "BOM JESUS, DIAMANTINA, Minas Gerais, Brasil",
    "source": "neighborhood",
    "status": "ok",
    "uf": "MG"
  },
  "bom jesus|matozinhos|mg": {
    "display_name": "Bom Jesus I, Matozinhos, Região Geográfica Imediata de Sete Lagoas, Região Metropolitana de Belo Horizonte, Região Geográfica Intermediária de Belo Horizonte, Minas Gerais, 35720-000, Brasil",
    "lat": -19.5671161,
    "lng": -44.0660957,
    "query": "BOM JESUS, MATOZINHOS, Minas Gerais, Brasil",
    "source": "neighborhood",
    "status": "ok",
    "uf": "MG"
  },
  "bom jesus|pirapora|mg": {
    "display_name": "Bom Jesus, Pirapora, Região Geográfica Imediata de Pirapora, Região Geográfica Intermediária de Montes Claros, Minas Gerais, 39272-114, Brasil",
    "lat": -17.3603906,
    "lng": -44.9444379,
    "query": "BOM JESUS, PIRAPORA, Minas Gerais, Brasil",
    "source": "neighborhood",
    "status": "ok",
    "uf": "MG"
  },
  "bom jesus|porteirinha|mg": {
    "display_name": "Bom Jesus, Gorutuba, Porteirinha, Minas Gerais, Região Sudeste, Brasil",
    "lat": -15.7297546,
    "lng": -43.1257573,
    "query": "BOM JESUS, PORTEIRINHA, Minas Gerais, Brasil",
    "source": "neighborhood",
    "status": "ok",
    "uf": "MG"
  },
  "bom jesus|uberlândia|mg": {
    "display_name": "Bom Jesus, Setor Central, Uberlândia, Região Geográfica Imediata de Uberlândia, Região Geográfica Intermediária de Uberlândia, Minas Gerais, Brasil",
    "lat": -18.9019364,
    "lng": -48.2732857,
    "query": "BOM JESUS, UBERLÂNDIA, Minas Gerais, Brasil",
    "source": "neighborhood",
    "status": "ok",
    "uf": "MG"
  },
  "bom pastor|divinópolis|mg": {
    "display_name": "Bom Pastor, Divinópolis, Minas Gerais, Região Sudeste, 35500-184, Brasil",
    "lat": -20.1191,
    "lng": -44.8885593,
    "query": "BOM PASTOR, DIVINÓPOLIS, Minas Gerais, Brasil",
    "source": "neighborhood",
    "status": "ok",
    "uf": "MG"
  },
  "bom pastor|manhuaçu|mg": {
    "display_name": "Bom Pastor, Baixada, Manhuaçu, Região Geográfica Imediata de Manhuaçu, Região Geográfica Intermediária de Juiz de Fora, Minas Gerais, Brasil",
    "lat": -20.2427264,
    "lng": -42.0273405,
    "query": "Bom Pastor, MANHUAÇU, Minas Gerais, Brasil",
    "source": "neighborhood",
    "status": "ok",
    "uf": "MG"
  },
  "bom retiro leste|ipatinga|mg": {
    "display_name": "Ipatinga, Região Geográfica Imediata de Ipatinga, Região Metropolitana do Vale do Aço, Região Geográfica Intermediária de Ipatinga, Minas Gerais, Brasil",
    "lat": -19.4777807,
    "lng": -42.5270802,
    "query": "IPATINGA, Minas Gerais, Brasil",
    "source": "city",
    "status": "ok",
    "uf": "MG"
  },
  "bom retiro|betim|mg": {
    "display_name": "Bom Retiro/Conjunto Habitacional Giuseppe Lazzarotti, Regional Norte, Betim, Minas Gerais, Região Sudeste, Brasil",
    "lat": -19.9350838,
    "lng": -44.1987423,
    "query": "BOM RETIRO, BETIM, Minas Gerais, Brasil",
    "source": "neighborhood",
    "status": "ok",
    "uf": "MG"
  },
  "bom retiro|sabará|mg": {
    "display_name": "Campo de Futebol da Associação Atlética Bom Retiro, Rua Mercúrio, Ana Lúcia, Carvalho de Brito, Sabará, Minas Gerais, Região Sudeste, 34710-160, Brasil",
    "lat": -19.8763552,
    "lng": -43.9051534,
    "query": "BOM RETIRO, SABARÁ, Minas Gerais, Brasil",
    "source": "neighborhood",
    "status": "ok",
    "uf": "MG"
  },
  "bomba|peçanha|mg": {
    "display_name": "Bomba, Peçanha, Minas Gerais, Região Sudeste, 39700-000, Brasil",
    "lat": -18.5401035,
    "lng": -42.5653601,
    "query": "BOMBA, PEÇANHA, Minas Gerais, Brasil",
    "source": "neighborhood",
    "status": "ok",
    "uf": "MG"
  },
  "bonfim|bocaiúva|mg": {
    "display_name": "Bonfim, Bocaiuva, Minas Gerais, Região Sudeste, Brasil",
    "lat": -17.1095565,
    "lng": -43.8179164,
    "query": "BONFIM, BOCAIÚVA, Minas Gerais, Brasil",
    "source": "neighborhood",
    "status": "ok",
    "uf": "MG"
  },
  "bonfim|juiz de fora|mg": {
    "display_name": "Bonfim, Juiz de Fora, Minas Gerais, Região Sudeste, 36051-450, Brasil",
    "lat": -21.738407,
    "lng": -43.3447405,
    "query": "BONFIM, JUIZ DE FORA, Minas Gerais, Brasil",
    "source": "neighborhood",
    "status": "ok",
    "uf": "MG"
  },
  "bonfim|nova lima|mg": {
    "display_name": "Bonfim, Quintas, Nova Lima, Minas Gerais, Região Sudeste, 34001-363, Brasil",
    "lat": -19.9880499,
    "lng": -43.8458884,
    "query": "BONFIM, NOVA LIMA, Minas Gerais, Brasil",
    "source": "neighborhood",
    "status": "ok",
    "uf": "MG"
  },
  "bonfim|pedra azul|mg": {
    "display_name": "Bonfim, Pedra Azul, Região Geográfica Imediata de Pedra Azul, Região Geográfica Intermediária de Teófilo Otoni, Minas Gerais, Brasil",
    "lat": -15.9910958,
    "lng": -41.2754223,
    "query": "BONFIM, PEDRA AZUL, Minas Gerais, Brasil",
    "source": "neighborhood",
    "status": "ok",
    "uf": "MG"
  },
  "bonsucesso|belo horizonte|mg": {
    "display_name": "Bonsucesso, Barreiro, Belo Horizonte, Região Geográfica Imediata de Belo Horizonte, Região Metropolitana de Belo Horizonte, Região Geográfica Intermediária de Belo Horizonte, Minas Gerais, Brasil",
    "lat": -19.9866291,
    "lng": -43.9796464,
    "query": "BONSUCESSO, BELO HORIZONTE, Minas Gerais, Brasil",
    "source": "neighborhood",
    "status": "ok",
    "uf": "MG"
  },
  "borboleta|juiz de fora|mg": {
    "display_name": "Borboleta, Juiz de Fora, Região Geográfica Imediata de Juiz de Fora, Região Geográfica Intermediária de Juiz de Fora, Minas Gerais, Brasil",
    "lat": -21.7560424,
    "lng": -43.3795655,
    "query": "Borboleta, Juiz de Fora, Minas Gerais, Brasil",
    "source": "neighborhood",
    "status": "ok",
    "uf": "MG"
  },
  "bosque da saúde|são paulo|mg": {
    "display_name": "São Paulo, Governador Valadares, Região Geográfica Imediata de Governador Valadares, Região Geográfica Intermediária de Governador Valadares, Minas Gerais, Região Sudeste, Brasil",
    "lat": -18.8757627,
    "lng": -41.9547086,
    "query": "SÃO PAULO, Minas Gerais, Brasil",
    "source": "city",
    "status": "ok",
    "uf": "MG"
  },
  "bosque|araguari|mg": {
    "display_name": "Bosque, Araguari, Minas Gerais, Região Sudeste, Brasil",
    "lat": -18.6533434,
    "lng": -48.1833545,
    "query": "BOSQUE, ARAGUARI, Minas Gerais, Brasil",
    "source": "neighborhood",
    "status": "ok",
    "uf": "MG"
  },
  "botafogo|ribeirão das neves|mg": {
    "display_name": "Botafogo, Justinópolis, Ribeirão das Neves, Região Geográfica Imediata de Belo Horizonte, Região Metropolitana de Belo Horizonte, Região Geográfica Intermediária de Belo Horizonte, Minas Gerais, 33903-400, Brasil",
    "lat": -19.7898899,
    "lng": -44.0194844,
    "query": "BOTAFOGO, RIBEIRÃO DAS NEVES, Minas Gerais, Brasil",
    "source": "neighborhood",
    "status": "ok",
    "uf": "MG"
  },
  "botafogo|três pontas|mg": {
    "display_name": "Botafogo, Três Pontas, Região Geográfica Imediata de Três Pontas - Boa Esperança, Região Geográfica Intermediária de Varginha, Minas Gerais, 37190-000, Brasil",
    "lat": -21.3724778,
    "lng": -45.508328,
    "query": "BOTAFOGO, TRÊS PONTAS, Minas Gerais, Brasil",
    "source": "neighborhood",
    "status": "ok",
    "uf": "MG"
  },
  "botelho|brasília de minas|mg": {
    "display_name": "Rua Minervina Botelho, Santa Rita, Brasília de Minas, Minas Gerais, Região Sudeste, 39330-000, Brasil",
    "lat": -16.2060836,
    "lng": -44.4277271,
    "query": "BOTELHO, BRASÍLIA DE MINAS, Minas Gerais, Brasil",
    "source": "neighborhood",
    "status": "ok",
    "uf": "MG"
  },
  "boulevard lago sul|itauna|mg": {
    "display_name": "Itaúna, Região Geográfica Imediata de Divinópolis, Região Geográfica Intermediária de Divinópolis, Minas Gerais, Brasil",
    "lat": -20.075556,
    "lng": -44.576389,
    "query": "ITAUNA, Minas Gerais, Brasil",
    "source": "city",
    "status": "ok",
    "uf": "MG"
  },
  "brasil|uberlândia|mg": {
    "display_name": "Brasil, Setor Central, Uberlândia, Minas Gerais, Região Sudeste, Brasil",
    "lat": -18.8941408,
    "lng": -48.2622678,
    "query": "BRASIL, UBERLÂNDIA, Minas Gerais, Brasil",
    "source": "neighborhood",
    "status": "ok",
    "uf": "MG"
  },
  "brasiléia|betim|mg": {
    "display_name": "Brasileia, Regional Sede, Betim, Minas Gerais, Região Sudeste, Brasil",
    "lat": -19.9756311,
    "lng": -44.2104958,
    "query": "BRASILÉIA, BETIM, Minas Gerais, Brasil",
    "source": "neighborhood",
    "status": "ok",
    "uf": "MG"
  },
  "bromélias|timóteo|mg": {
    "display_name": "Bromélias, Timóteo, Minas Gerais, Região Sudeste, 35180-512, Brasil",
    "lat": -19.5440169,
    "lng": -42.6527991,
    "query": "BROMÉLIAS, TIMÓTEO, Minas Gerais, Brasil",
    "source": "neighborhood",
    "status": "ok",
    "uf": "MG"
  },
  "brumal|santa bárbara|mg": {
    "display_name": "Brumal, Santa Bárbara, Região Geográfica Imediata de Santa Bárbara - Ouro Preto, Região Geográfica Intermediária de Belo Horizonte, Minas Gerais, Brasil",
    "lat": -20.0325747,
    "lng": -43.5112778,
    "query": "BRUMAL, SANTA BÁRBARA, Minas Gerais, Brasil",
    "source": "neighborhood",
    "status": "ok",
    "uf": "MG"
  },
  "buarque de macedo|conselheiro lafaiete|mg": {
    "display_name": "Buarque de Macedo, Conselheiro Lafaiete, Minas Gerais, Região Sudeste, Brasil",
    "lat": -20.7565,
    "lng": -43.7904583,
    "query": "BUARQUE DE MACEDO, CONSELHEIRO LAFAIETE, Minas Gerais, Brasil",
    "source": "neighborhood",
    "status": "ok",
    "uf": "MG"
  },
  "buritizeiro|riachinho|mg": {
    "display_name": "Rua Buritizeiro, Riachinho, Minas Gerais, Região Sudeste, Brasil",
    "lat": -16.226072,
    "lng": -45.9976839,
    "query": "BURITIZEIRO, RIACHINHO, Minas Gerais, Brasil",
    "source": "neighborhood",
    "status": "ok",
    "uf": "MG"
  },
  "cabanas|mariana|mg": {
    "display_name": "Cabanas, Mariana, Região Geográfica Imediata de Santa Bárbara - Ouro Preto, Região Geográfica Intermediária de Belo Horizonte, Minas Gerais, 35426-262, Brasil",
    "lat": -20.3974004,
    "lng": -43.417722,
    "query": "CABANAS, MARIANA, Minas Gerais, Brasil",
    "source": "neighborhood",
    "status": "ok",
    "uf": "MG"
  },
  "cabana|belo horizonte|mg": {
    "display_name": "Cabana do Pai Tomás, Regional Oeste, Belo Horizonte, Minas Gerais, Região Sudeste, Brasil",
    "lat": -19.9460478,
    "lng": -44.000433,
    "query": "CABANA, BELO HORIZONTE, Minas Gerais, Brasil",
    "source": "neighborhood",
    "status": "ok",
    "uf": "MG"
  },
  "cachoeira do brumado|mariana|mg": {
    "display_name": "Cachoeira do Brumado, Mariana, Minas Gerais, Região Sudeste, Brasil",
    "lat": -20.4103958,
    "lng": -43.2721378,
    "query": "CACHOEIRA DO BRUMADO, MARIANA, Minas Gerais, Brasil",
    "source": "neighborhood",
    "status": "ok",
    "uf": "MG"
  },
  "cachoeira do campo|ouro preto|mg": {
    "display_name": "Cachoeira do Campo, Ouro Preto, Região Geográfica Imediata de Santa Bárbara - Ouro Preto, Região Geográfica Intermediária de Belo Horizonte, Minas Gerais, Brasil",
    "lat": -20.3681039,
    "lng": -43.6532538,
    "query": "Cachoeira do Campo, OURO PRETO, Minas Gerais, Brasil",
    "source": "neighborhood",
    "status": "ok",
    "uf": "MG"
  },
  "cachoeira do vale|timóteo|mg": {
    "display_name": "Cachoeira do Vale, Timóteo, Minas Gerais, Região Sudeste, 35184-013, Brasil",
    "lat": -19.557509,
    "lng": -42.6828309,
    "query": "CACHOEIRA DO VALE, TIMÓTEO, Minas Gerais, Brasil",
    "source": "neighborhood",
    "status": "ok",
    "uf": "MG"
  },
  "cachoeira|betim|mg": {
    "display_name": "Cachoeira, Regional Sede, Betim, Minas Gerais, Região Sudeste, Brasil",
    "lat": -19.963735,
    "lng": -44.2271245,
    "query": "CACHOEIRA, BETIM, Minas Gerais, Brasil",
    "source": "neighborhood",
    "status": "ok",
    "uf": "MG"
  },
  "cachoeira|conselheiro lafaiete|mg": {
    "display_name": "Cachoeira, Conselheiro Lafaiete, Minas Gerais, Região Sudeste, 36400-170, Brasil",
    "lat": -20.6516765,
    "lng": -43.7989122,
    "query": "CACHOEIRA, CONSELHEIRO LAFAIETE, Minas Gerais, Brasil",
    "source": "neighborhood",
    "status": "ok",
    "uf": "MG"
  },
  "cachoeirinha|belo horizonte|mg": {
    "display_name": "Cachoeirinha, Regional Nordeste, Belo Horizonte, Região Geográfica Imediata de Belo Horizonte, Região Metropolitana de Belo Horizonte, Região Geográfica Intermediária de Belo Horizonte, Minas Gerais, Brasil",
    "lat": -19.8902003,
    "lng": -43.9474556,
    "query": "CACHOEIRINHA, BELO HORIZONTE, Minas Gerais, Brasil",
    "source": "neighborhood",
    "status": "ok",
    "uf": "MG"
  },
  "caio martins|esmeraldas|mg": {
    "display_name": "Caio Martins, Esmeraldas, Minas Gerais, Região Sudeste, 32623-655, Brasil",
    "lat": -19.8588054,
    "lng": -44.3101355,
    "query": "CAIO MARTINS, ESMERALDAS, Minas Gerais, Brasil",
    "source": "neighborhood",
    "status": "ok",
    "uf": "MG"
  },
  "caiçara-adelaide|belo horizonte|mg": {
    "display_name": "Caiçara-Adelaide, Regional Noroeste, Belo Horizonte, Minas Gerais, Região Sudeste, Brasil",
    "lat": -19.9051336,
    "lng": -43.9749872,
    "query": "CAIÇARA-ADELAIDE, BELO HORIZONTE, Minas Gerais, Brasil",
    "source": "neighborhood",
    "status": "ok",
    "uf": "MG"
  },
  "caiçaras|belo horizonte|mg": {
    "display_name": "Caiçaras, Regional Noroeste, Belo Horizonte, Região Geográfica Imediata de Belo Horizonte, Região Metropolitana de Belo Horizonte, Região Geográfica Intermediária de Belo Horizonte, Minas Gerais, Brasil",
    "lat": -19.8997005,
    "lng": -43.9652556,
    "query": "CAIÇARAS, BELO HORIZONTE, Minas Gerais, Brasil",
    "source": "neighborhood",
    "status": "ok",
    "uf": "MG"
  },
  "caiçara|belo horizonte|mg": {
    "display_name": "Caiçaras, Regional Noroeste, Belo Horizonte, Minas Gerais, Região Sudeste, Brasil",
    "lat": -19.8997005,
    "lng": -43.9652556,
    "query": "CAIÇARA, BELO HORIZONTE, Minas Gerais, Brasil",
    "source": "neighborhood",
    "status": "ok",
    "uf": "MG"
  },
  "caladinhho|coronel fabriciano|mg": {
    "query": "CALADINHHO, CORONEL FABRICIANO, Minas Gerais, Brasil",
    "status": "miss"
  },
  "calafate|belo horizonte|mg": {
    "display_name": "Calafate, 120, Rua Extrema, Calafate, Regional Oeste, Belo Horizonte, Região Geográfica Imediata de Belo Horizonte, Região Metropolitana de Belo Horizonte, Região Geográfica Intermediária de Belo Horizonte, Minas Gerais, 30411-320, Brasil",
    "lat": -19.9223355,
    "lng": -43.9702945,
    "query": "CALAFATE, BELO HORIZONTE, Minas Gerais, Brasil",
    "source": "neighborhood",
    "status": "ok",
    "uf": "MG"
  },
  "califórnia|nova porteirinha|mg": {
    "query": "CALIFÓRNIA, NOVA PORTEIRINHA, Minas Gerais, Brasil",
    "status": "miss"
  },
  "camargos|belo horizonte|mg": {
    "display_name": "Camargos, Regional Oeste, Belo Horizonte, Região Geográfica Imediata de Belo Horizonte, Região Metropolitana de Belo Horizonte, Região Geográfica Intermediária de Belo Horizonte, Minas Gerais, 30520-000, Brasil",
    "lat": -19.9400693,
    "lng": -44.018565,
    "query": "CAMARGOS, Belo Horizonte, Minas Gerais, Brasil",
    "source": "neighborhood",
    "status": "ok",
    "uf": "MG"
  },
  "camelos|santa luzia|mg": {
    "display_name": "Camelos, Santa Luzia, Minas Gerais, Região Sudeste, 33010-030, Brasil",
    "lat": -19.7648503,
    "lng": -43.8553861,
    "query": "CAMELOS, SANTA LUZIA, Minas Gerais, Brasil",
    "source": "neighborhood",
    "status": "ok",
    "uf": "MG"
  },
  "campestre|itabira|mg": {
    "display_name": "Campestre, Itabira, Minas Gerais, Região Sudeste, 35900-595, Brasil",
    "lat": -19.6142116,
    "lng": -43.219378,
    "query": "CAMPESTRE, ITABIRA, Minas Gerais, Brasil",
    "source": "neighborhood",
    "status": "ok",
    "uf": "MG"
  },
  "campo santana|prudente de morais|mg": {
    "display_name": "Prudente de Morais, Região Geográfica Imediata de Sete Lagoas, Região Geográfica Intermediária de Belo Horizonte, Minas Gerais, 35715-000, Brasil",
    "lat": -19.4825,
    "lng": -44.155556,
    "query": "PRUDENTE DE MORAIS, Minas Gerais, Brasil",
    "source": "city",
    "status": "ok",
    "uf": "MG"
  },
  "campos eliseos|betim|mg": {
    "display_name": "Campos Elíseos, Regional PTB, Betim, Região Geográfica Imediata de Belo Horizonte, Região Metropolitana de Belo Horizonte, Região Geográfica Intermediária de Belo Horizonte, Minas Gerais, Região Sudeste, Brasil",
    "lat": -19.9800258,
    "lng": -44.1434254,
    "query": "CAMPOS ELISEOS, BETIM, Minas Gerais, Brasil",
    "source": "neighborhood",
    "status": "ok",
    "uf": "MG"
  },
  "campos elíseos|capinópolis|mg": {
    "display_name": "Córrego Campos Eliseos, Capinópolis, Região Geográfica Imediata de Ituiutaba, Região Geográfica Intermediária de Uberlândia, Minas Gerais, 38360-000, Brasil",
    "lat": -18.6914173,
    "lng": -49.5585142,
    "query": "CAMPOS ELÍSEOS, CAPINÓPOLIS, Minas Gerais, Brasil",
    "source": "neighborhood",
    "status": "ok",
    "uf": "MG"
  },
  "campo|turmalina|mg": {
    "display_name": "Campo Alegre, Turmalina, Minas Gerais, Região Sudeste, Brasil",
    "lat": -17.3802417,
    "lng": -42.589134,
    "query": "CAMPO, TURMALINA, Minas Gerais, Brasil",
    "source": "neighborhood",
    "status": "ok",
    "uf": "MG"
  },
  "campus ufmg|belo horizonte|mg": {
    "display_name": "Campus UFMG, Pampulha, Belo Horizonte, Minas Gerais, Região Sudeste, Brasil",
    "lat": -19.8733672,
    "lng": -43.9676151,
    "query": "CAMPUS UFMG, BELO HORIZONTE, Minas Gerais, Brasil",
    "source": "neighborhood",
    "status": "ok",
    "uf": "MG"
  },
  "cana brava|coração de jesus|mg": {
    "display_name": "Riacho Cana Brava, Coração de Jesus, Minas Gerais, Região Sudeste, Brasil",
    "lat": -16.6709163,
    "lng": -44.4636775,
    "query": "CANA BRAVA, CORAÇÃO DE JESUS, Minas Gerais, Brasil",
    "source": "neighborhood",
    "status": "ok",
    "uf": "MG"
  },
  "canaã|ibirité|mg": {
    "display_name": "Canaã 1ª Seção, Ibirité, Minas Gerais, Região Sudeste, Brasil",
    "lat": -20.0174739,
    "lng": -44.0989314,
    "query": "CANAÃ, IBIRITÉ, Minas Gerais, Brasil",
    "source": "neighborhood",
    "status": "ok",
    "uf": "MG"
  },
  "canaã|ipatinga|mg": {
    "display_name": "Canaã, Ipatinga, Minas Gerais, Região Sudeste, Brasil",
    "lat": -19.451218,
    "lng": -42.5511226,
    "query": "CANAÃ, IPATINGA, Minas Gerais, Brasil",
    "source": "neighborhood",
    "status": "ok",
    "uf": "MG"
  },
  "canaã|sete lagoas|mg": {
    "display_name": "Praça Martiniano de Carvalho, Santo Antônio, Sete Lagoas, Região Geográfica Imediata de Sete Lagoas, Região Geográfica Intermediária de Belo Horizonte, Minas Gerais, Brasil",
    "lat": -19.4651466,
    "lng": -44.2527736,
    "query": "CANAÃ, SETE LAGOAS, Minas Gerais, Brasil",
    "source": "neighborhood",
    "status": "ok",
    "uf": "MG"
  },
  "canjeranus|passos|mg": {
    "display_name": "Canjeranus, Passos, Região Geográfica Imediata de Passos, Região Geográfica Intermediária de Varginha, Minas Gerais, Brasil",
    "lat": -20.713,
    "lng": -46.6061867,
    "query": "CANJERANUS, PASSOS, Minas Gerais, Brasil",
    "source": "neighborhood",
    "status": "ok",
    "uf": "MG"
  },
  "canoeiro josé a carvalho|araçuaí|mg": {
    "query": "CANOEIRO JOSÉ A CARVALHO, ARAÇUAÍ, Minas Gerais, Brasil",
    "status": "miss"
  },
  "caracóis|esmeraldas|mg": {
    "display_name": "Caracóis, Esmeraldas, Minas Gerais, Região Sudeste, 32808-590, Brasil",
    "lat": -19.7779088,
    "lng": -44.2434585,
    "query": "CARACÓIS, ESMERALDAS, Minas Gerais, Brasil",
    "source": "neighborhood",
    "status": "ok",
    "uf": "MG"
  },
  "caravelas|ipatinga|mg": {
    "display_name": "Caravelas, Ipatinga, Minas Gerais, Região Sudeste, Brasil",
    "lat": -19.4588359,
    "lng": -42.5354258,
    "query": "CARAVELAS, IPATINGA, Minas Gerais, Brasil",
    "source": "neighborhood",
    "status": "ok",
    "uf": "MG"
  },
  "cardoso|belo horizonte|mg": {
    "display_name": "Cardoso, Barreiro, Belo Horizonte, Minas Gerais, Região Sudeste, 30626-380, Brasil",
    "lat": -20.0026357,
    "lng": -44.0073804,
    "query": "CARDOSO, BELO HORIZONTE, Minas Gerais, Brasil",
    "source": "neighborhood",
    "status": "ok",
    "uf": "MG"
  },
  "carijós|belo vale|mg": {
    "query": "CARIJÓS, BELO VALE, Minas Gerais, Brasil",
    "status": "miss"
  },
  "carijós|conselheiro lafaiete|mg": {
    "display_name": "Carijós, Conselheiro Lafaiete, Minas Gerais, Região Sudeste, 36401-002, Brasil",
    "lat": -20.6700324,
    "lng": -43.7966244,
    "query": "CARIJÓS, CONSELHEIRO LAFAIETE, Minas Gerais, Brasil",
    "source": "neighborhood",
    "status": "ok",
    "uf": "MG"
  },
  "cariru|ipatinga|mg": {
    "display_name": "Cariru, Ipatinga, Minas Gerais, Região Sudeste, Brasil",
    "lat": -19.491563,
    "lng": -42.5268045,
    "query": "CARIRU, IPATINGA, Minas Gerais, Brasil",
    "source": "neighborhood",
    "status": "ok",
    "uf": "MG"
  },
  "carlos chagas|juiz de fora|mg": {
    "display_name": "Carlos Chagas, Juiz de Fora, Região Geográfica Imediata de Juiz de Fora, Região Geográfica Intermediária de Juiz de Fora, Minas Gerais, Brasil",
    "lat": -21.744351,
    "lng": -43.3908675,
    "query": "Carlos Chagas, JUIZ DE FORA, Minas Gerais, Brasil",
    "source": "neighborhood",
    "status": "ok",
    "uf": "MG"
  },
  "carlos prates|belo horizonte|mg": {
    "display_name": "Carlos Prates, Regional Noroeste, Belo Horizonte, Minas Gerais, Região Sudeste, Brasil",
    "lat": -19.9135509,
    "lng": -43.9657474,
    "query": "CARLOS PRATES, BELO HORIZONTE, Minas Gerais, Brasil",
    "source": "neighborhood",
    "status": "ok",
    "uf": "MG"
  },
  "carmo sion|belo horizonte|mg": {
    "display_name": "Carmo Sion Materiais de Construção, 1179, Avenida Nossa Senhora do Carmo, Sion, Regional Centro-Sul, Belo Horizonte, Minas Gerais, Região Sudeste, 30330-000, Brasil",
    "lat": -19.9508825,
    "lng": -43.9367727,
    "query": "CARMO SION, BELO HORIZONTE, Minas Gerais, Brasil",
    "source": "neighborhood",
    "status": "ok",
    "uf": "MG"
  },
  "carmo|monte carmelo|mg": {
    "display_name": "Rua Nossa Senhora do Carmo, Lambari, Monte Carmelo, Região Geográfica Imediata de Monte Carmelo, Região Geográfica Intermediária de Uberlândia, Minas Gerais, Brasil",
    "lat": -18.7012691,
    "lng": -47.4971696,
    "query": "CARMO, MONTE CARMELO, Minas Gerais, Brasil",
    "source": "neighborhood",
    "status": "ok",
    "uf": "MG"
  },
  "carneirinhos|joão monlevade|mg": {
    "display_name": "Carneirinhos, João Monlevade, Região Geográfica Imediata de João Monlevade, Região Geográfica Intermediária de Ipatinga, Minas Gerais, 35930-480, Brasil",
    "lat": -19.8091418,
    "lng": -43.1722246,
    "query": "CARNEIRINHOS, JOÃO MONLEVADE, Minas Gerais, Brasil",
    "source": "neighborhood",
    "status": "ok",
    "uf": "MG"
  },
  "carreira comprida|santa luzia|ma": {
    "query": "CARREIRA COMPRIDA, SANTA LUZIA, Maranhão, Brasil",
    "status": "miss"
  },
  "carreira comprida|santa luzia|mg": {
    "display_name": "Estação Carreira Comprida, Avenida Doutor Ângelo Teixeira da Costa, Nova Esperança (Pantanal), Santa Luzia, Região Geográfica Imediata de Belo Horizonte, Região Metropolitana de Belo Horizonte, Região Geográfica Intermediária de Belo Horizonte, Minas Gerais, 33045-090, Brasil",
    "lat": -19.7542215,
    "lng": -43.8794812,
    "query": "CARREIRA COMPRIDA, SANTA LUZIA, Minas Gerais, Brasil",
    "source": "neighborhood",
    "status": "ok",
    "uf": "MG"
  },
  "casa branca|belo horizonte|mg": {
    "display_name": "Casa Branca, Regional Leste, Belo Horizonte, Minas Gerais, Região Sudeste, Brasil",
    "lat": -19.8990166,
    "lng": -43.8876712,
    "query": "CASA BRANCA, BELO HORIZONTE, Minas Gerais, Brasil",
    "source": "neighborhood",
    "status": "ok",
    "uf": "MG"
  },
  "cascata|ibirité|mg": {
    "display_name": "Cascata, Ibirité, Minas Gerais, Região Sudeste, Brasil",
    "lat": -19.9856052,
    "lng": -44.0859276,
    "query": "CASCATA, IBIRITÉ, Minas Gerais, Brasil",
    "source": "neighborhood",
    "status": "ok",
    "uf": "MG"
  },
  "catalão|divinópolis|mg": {
    "display_name": "Catalão, Divinópolis, Minas Gerais, Região Sudeste, Brasil",
    "lat": -20.1533371,
    "lng": -44.9008033,
    "query": "CATALÃO, DIVINÓPOLIS, Minas Gerais, Brasil",
    "source": "neighborhood",
    "status": "ok",
    "uf": "MG"
  },
  "catas|silvianópolis|mg": {
    "query": "CATAS, SILVIANÓPOLIS, Minas Gerais, Brasil",
    "status": "miss"
  },
  "catulina matos de castro|monte carmelo|mg": {
    "query": "CATULINA MATOS DE CASTRO, MONTE CARMELO, Minas Gerais, Brasil",
    "status": "miss"
  },
  "cava grande|marliéria|mg": {
    "display_name": "Cava Grande, Marliéria, Minas Gerais, Região Sudeste, 35185-000, Brasil",
    "lat": -19.6427289,
    "lng": -42.5616608,
    "query": "CAVA GRANDE, MARLIÉRIA, Minas Gerais, Brasil",
    "source": "neighborhood",
    "status": "ok",
    "uf": "MG"
  },
  "cazuza|diamantina|mg": {
    "display_name": "Estratégia de Saúde da Família Cazuza, Rua José Anacleto Alves, Diamantina, Minas Gerais, Região Sudeste, Brasil",
    "lat": -18.238939,
    "lng": -43.6284077,
    "query": "CAZUZA, DIAMANTINA, Minas Gerais, Brasil",
    "source": "neighborhood",
    "status": "ok",
    "uf": "MG"
  },
  "cel olinto vieira|padre paraíso|mg": {
    "display_name": "Rua Coronel Olinto Vieira, Padre Paraíso, Região Geográfica Imediata de Teófilo Otoni, Região Geográfica Intermediária de Teófilo Otoni, Minas Gerais, Brasil",
    "lat": -17.0752361,
    "lng": -41.4847108,
    "query": "CEL OLINTO VIEIRA, PADRE PARAÍSO, Minas Gerais, Brasil",
    "source": "neighborhood",
    "status": "ok",
    "uf": "MG"
  },
  "celestino|belo horizonte|mg": {
    "display_name": "Praça Dr. Celestino Marra, Santa Amélia, Pampulha, Belo Horizonte, Minas Gerais, Região Sudeste, Brasil",
    "lat": -19.8456597,
    "lng": -43.9771741,
    "query": "CELESTINO, BELO HORIZONTE, Minas Gerais, Brasil",
    "source": "neighborhood",
    "status": "ok",
    "uf": "MG"
  },
  "cemig|três marias|mg": {
    "display_name": "Rua Cemig, Três Marias, Minas Gerais, Região Sudeste, 39205-000, Brasil",
    "lat": -18.2075366,
    "lng": -45.2240334,
    "query": "CEMIG, TRÊS MARIAS, Minas Gerais, Brasil",
    "source": "neighborhood",
    "status": "ok",
    "uf": "MG"
  },
  "centenário|boa esperança|mg": {
    "display_name": "Centenário, Boa Esperança, Minas Gerais, Região Sudeste, Brasil",
    "lat": -21.0995058,
    "lng": -45.560469,
    "query": "CENTENÁRIO, BOA ESPERANÇA, Minas Gerais, Brasil",
    "source": "neighborhood",
    "status": "ok",
    "uf": "MG"
  },
  "centenário|nova era|mg": {
    "display_name": "Centenário, Nova Era, Minas Gerais, Região Sudeste, 35920-000, Brasil",
    "lat": -19.7706816,
    "lng": -43.033576,
    "query": "CENTENÁRIO, NOVA ERA, Minas Gerais, Brasil",
    "source": "neighborhood",
    "status": "ok",
    "uf": "MG"
  },
  "centro - centro administrativo|acaua|pi": {
    "query": "CENTRO - CENTRO ADMINISTRATIVO, Acaua, Piauí, Brasil",
    "status": "miss"
  },
  "centro - sede|quixabeira|ba": {
    "query": "CENTRO - SEDE, Quixabeira, Bahia, Brasil",
    "status": "miss"
  },
  "centro comunitário rio verde|jaiba|mg": {
    "display_name": "Jaíba, Região Geográfica Imediata de Janaúba, Região Geográfica Intermediária de Montes Claros, Minas Gerais, 39508-000, Brasil",
    "lat": -15.3373744,
    "lng": -43.6734439,
    "query": "Jaiba, Minas Gerais, Brasil",
    "source": "city",
    "status": "ok",
    "uf": "MG"
  },
  "centro de vila velha|vila velha|es": {
    "display_name": "Centro de Vila Velha, Vila Velha, Espírito Santo, Região Sudeste, Brasil",
    "lat": -20.3363548,
    "lng": -40.2935892,
    "query": "Centro de Vila velha, vila velha, Espírito Santo, Brasil",
    "source": "neighborhood",
    "status": "ok",
    "uf": "ES"
  },
  "centro guaranilândia|jequitinhonha|mg": {
    "display_name": "Escola Estadual Coronel João da Cunha, 179, Rua João Alves Cardoso, Guaranilândia, Jequitinhonha, Região Geográfica Imediata de Almenara, Região Geográfica Intermediária de Teófilo Otoni, Minas Gerais, 39965-000, Brasil",
    "lat": -16.299266,
    "lng": -40.8058054,
    "query": "RUA JOÃO ALVES CARDOSO, 179, CENTRO GUARANILÂNDIA, JEQUITINHONHA, Minas Gerais, Brasil",
    "source": "address",
    "status": "ok",
    "uf": "MG"
  },
  "centro norte|timóteo|mg": {
    "display_name": "Centro, Timóteo, Região Geográfica Imediata de Ipatinga, Região Metropolitana do Vale do Aço, Região Geográfica Intermediária de Ipatinga, Minas Gerais, Brasil",
    "lat": -19.5385873,
    "lng": -42.647368,
    "query": "Centro Norte, TIMÓTEO, Minas Gerais, Brasil",
    "source": "neighborhood",
    "status": "ok",
    "uf": "MG"
  },
  "centro-distrito: itapanhoacanga|alvorada de minas|mg": {
    "display_name": "Alvorada de Minas, Região Geográfica Imediata de Diamantina, Região Geográfica Intermediária de Teófilo Otoni, Minas Gerais, 39140-000, Brasil",
    "lat": -18.7318587,
    "lng": -43.3641479,
    "query": "ALVORADA DE MINAS, Minas Gerais, Brasil",
    "source": "city",
    "status": "ok",
    "uf": "MG"
  },
  "centro.|divinópolis|mg": {
    "display_name": "Centro, Santo Antônio dos Campos, Divinópolis, Região Geográfica Imediata de Divinópolis, Região Geográfica Intermediária de Divinópolis, Minas Gerais, Brasil",
    "lat": -20.1059298,
    "lng": -44.9741266,
    "query": "CENTRO., Divinópolis, Minas Gerais, Brasil",
    "source": "neighborhood",
    "status": "ok",
    "uf": "MG"
  },
  "centro|abadia dos dourados|mg": {
    "query": "CENTRO, ABADIA DOS DOURADOS, Minas Gerais, Brasil",
    "status": "miss"
  },
  "centro|abaeté|mg": {
    "display_name": "Centro, Zona Central, Abaeté, Minas Gerais, Região Sudeste, 35620-000, Brasil",
    "lat": -19.1558874,
    "lng": -45.4484224,
    "query": "CENTRO, ABAETÉ, Minas Gerais, Brasil",
    "source": "neighborhood",
    "status": "ok",
    "uf": "MG"
  },
  "centro|abre campo|mg": {
    "display_name": "Lider Centro Automotivo, Rua Almiro Marcolino, Abre Campo, Minas Gerais, Região Sudeste, 35365-000, Brasil",
    "lat": -20.2985915,
    "lng": -42.476591,
    "query": "Centro, ABRE CAMPO, Minas Gerais, Brasil",
    "source": "neighborhood",
    "status": "ok",
    "uf": "MG"
  },
  "centro|acaiaca|mg": {
    "query": "CENTRO, ACAIACA, Minas Gerais, Brasil",
    "status": "miss"
  },
  "centro|acrelandia|ac": {
    "display_name": "Centro Estadual de Educação Permanente, Rua Adenilson Rogerio de Oliveira, Acrelândia, Acre, Região Norte, 69945-000, Brasil",
    "lat": -10.0732754,
    "lng": -67.054581,
    "query": "CENTRO, Acrelandia, Acre, Brasil",
    "source": "neighborhood",
    "status": "ok",
    "uf": "AC"
  },
  "centro|afenas|mg": {
    "query": "Centro, Afenas, Minas Gerais, Brasil",
    "status": "miss"
  },
  "centro|afonso claudio|es": {
    "display_name": "Centro, Afonso Cláudio, Espírito Santo, Região Sudeste, 29600-000, Brasil",
    "lat": -20.077578,
    "lng": -41.124561,
    "query": "CENTRO, Afonso Claudio, Espírito Santo, Brasil",
    "source": "neighborhood",
    "status": "ok",
    "uf": "ES"
  },
  "centro|agua branca|pi": {
    "query": "CENTRO, Agua Branca, Piauí, Brasil",
    "status": "miss"
  },
  "centro|agua clara|ms": {
    "display_name": "Praça do centro, Água Clara, Mato Grosso do Sul, Região Centro-Oeste, Brasil",
    "lat": -20.4467906,
    "lng": -52.8749669,
    "query": "CENTRO, Agua Clara, Mato Grosso do Sul, Brasil",
    "source": "neighborhood",
    "status": "ok",
    "uf": "MS"
  },
  "centro|aiuruoca|mg": {
    "query": "CENTRO, AIURUOCA, Minas Gerais, Brasil",
    "status": "miss"
  },
  "centro|alagoa|mg": {
    "query": "CENTRO, ALAGOA, Minas Gerais, Brasil",
    "status": "miss"
  },
  "centro|albertina|mg": {
    "display_name": "Conglomerado de Praças / Praça do Centro, Albertina, Conselheiro Lafaiete, Região Geográfica Imediata de Conselheiro Lafaiete, Região Geográfica Intermediária de Juiz de Fora, Minas Gerais, Brasil",
    "lat": -20.6608289,
    "lng": -43.7866204,
    "query": "CENTRO, ALBERTINA, Minas Gerais, Brasil",
    "source": "neighborhood",
    "status": "ok",
    "uf": "MG"
  },
  "centro|alfenas|mg": {
    "display_name": "Centro, Alfenas, Região Geográfica Imediata de Alfenas, Região Geográfica Intermediária de Varginha, Minas Gerais, Brasil",
    "lat": -21.4258056,
    "lng": -45.9473348,
    "query": "CENTRO, ALFENAS, Minas Gerais, Brasil",
    "source": "neighborhood",
    "status": "ok",
    "uf": "MG"
  },
  "centro|alfredo vasconcelos|mg": {
    "query": "CENTRO, ALFREDO VASCONCELOS, Minas Gerais, Brasil",
    "status": "miss"
  },
  "centro|alhandra|pb": {
    "query": "CENTRO, Alhandra, Paraíba, Brasil",
    "status": "miss"
  },
  "centro|almenara|mg": {
    "display_name": "CenterMed, 37, Avenida Olindo de Miranda, Almenara, Região Geográfica Imediata de Almenara, Região Geográfica Intermediária de Teófilo Otoni, Minas Gerais, 39900-000, Brasil",
    "lat": -16.1736595,
    "lng": -40.6920941,
    "query": "CENTRO, ALMENARA, Minas Gerais, Brasil",
    "source": "neighborhood",
    "status": "ok",
    "uf": "MG"
  },
  "centro|alpercata|mg": {
    "display_name": "Alpercata, Região Geográfica Imediata de Governador Valadares, Região Geográfica Intermediária de Governador Valadares, Minas Gerais, Região Sudeste, Brasil",
    "lat": -18.993343,
    "lng": -41.9894704,
    "query": "ALPERCATA, Minas Gerais, Brasil",
    "source": "city",
    "status": "ok",
    "uf": "MG"
  },
  "centro|alpinópolis|mg": {
    "query": "CENTRO, ALPINÓPOLIS, Minas Gerais, Brasil",
    "status": "miss"
  },
  "centro|alterosa|mg": {
    "display_name": "Banco do Brasil, 364, Praça Benedito Valadares, Alterosa, Região Geográfica Imediata de Alfenas, Região Geográfica Intermediária de Varginha, Minas Gerais, 37145-000, Brasil",
    "lat": -21.2530871,
    "lng": -46.1437541,
    "query": "CENTRO, ALTEROSA, Minas Gerais, Brasil",
    "source": "neighborhood",
    "status": "ok",
    "uf": "MG"
  },
  "centro|alto caparaó|mg": {
    "display_name": "Alto Caparaó, Região Geográfica Imediata de Manhuaçu, Região Geográfica Intermediária de Juiz de Fora, Minas Gerais, 36979-000, Brasil",
    "lat": -20.4405661,
    "lng": -41.8683799,
    "query": "ALTO CAPARAÓ, Minas Gerais, Brasil",
    "source": "city",
    "status": "ok",
    "uf": "MG"
  },
  "centro|alto rio doce|mg": {
    "display_name": "Alto Rio Doce, Região Geográfica Imediata de Barbacena, Região Geográfica Intermediária de Juiz de Fora, Minas Gerais, 36260-000, Brasil",
    "lat": -21.0239537,
    "lng": -43.4133507,
    "query": "ALTO RIO DOCE, Minas Gerais, Brasil",
    "source": "city",
    "status": "ok",
    "uf": "MG"
  },
  "centro|alvarenga|mg": {
    "display_name": "CEMES - Centro Mineiro do Ensino Superior, Rua Professor Lady Alvarenga Neves, Campo Belo, Minas Gerais, Região Sudeste, 37270-000, Brasil",
    "lat": -20.8870715,
    "lng": -45.2723119,
    "query": "CENTRO, ALVARENGA, Minas Gerais, Brasil",
    "source": "neighborhood",
    "status": "ok",
    "uf": "MG"
  },
  "centro|alvinópolis|mg": {
    "display_name": "Centro de Educação Infantil Pluft, 51, Rua Alvinópolis, Lourdes, João Monlevade, Minas Gerais, Região Sudeste, 35930-057, Brasil",
    "lat": -19.8162748,
    "lng": -43.1783739,
    "query": "CENTRO, ALVINÓPOLIS, Minas Gerais, Brasil",
    "source": "neighborhood",
    "status": "ok",
    "uf": "MG"
  },
  "centro|alvorada de minas|mg": {
    "display_name": "Centro Esportivo Municipal de Educação Infantil Raio de Sol, Rua D, Alvorada de Minas, Minas Gerais, Região Sudeste, 39140-000, Brasil",
    "lat": -18.7251763,
    "lng": -43.3610475,
    "query": "CENTRO, ALVORADA DE MINAS, Minas Gerais, Brasil",
    "source": "neighborhood",
    "status": "ok",
    "uf": "MG"
  },
  "centro|amparo do serra|mg": {
    "query": "CENTRO, AMPARO DO SERRA, Minas Gerais, Brasil",
    "status": "miss"
  },
  "centro|andradas|mg": {
    "display_name": "Centro, Andradas, Região Geográfica Imediata de Poços de Caldas, Região Geográfica Intermediária de Pouso Alegre, Minas Gerais, 37795-000, Brasil",
    "lat": -22.0686758,
    "lng": -46.5707553,
    "query": "CENTRO, ANDRADAS, Minas Gerais, Brasil",
    "source": "neighborhood",
    "status": "ok",
    "uf": "MG"
  },
  "centro|angelândia|mg": {
    "display_name": "Angelândia, Região Geográfica Imediata de Capelinha, Região Geográfica Intermediária de Teófilo Otoni, Minas Gerais, 39685-000, Brasil",
    "lat": -17.7253,
    "lng": -42.2728,
    "query": "ANGELÂNDIA, Minas Gerais, Brasil",
    "source": "city",
    "status": "ok",
    "uf": "MG"
  },
  "centro|antonio almeida|pi": {
    "query": "CENTRO, Antonio Almeida, Piauí, Brasil",
    "status": "miss"
  },
  "centro|antônio dias|mg": {
    "display_name": "Novo Centro, Antônio Dias, Região Geográfica Imediata de Ipatinga, Região Geográfica Intermediária de Ipatinga, Minas Gerais, Região Sudeste, 35177-000, Brasil",
    "lat": -19.6151373,
    "lng": -42.8483477,
    "query": "CENTRO, ANTÔNIO DIAS, Minas Gerais, Brasil",
    "source": "neighborhood",
    "status": "ok",
    "uf": "MG"
  },
  "centro|antônio prado de minas|mg": {
    "display_name": "Antônio Prado de Minas, Região Geográfica Imediata de Muriaé, Região Geográfica Intermediária de Juiz de Fora, Minas Gerais, Brasil",
    "lat": -21.0171988,
    "lng": -42.1101106,
    "query": "ANTÔNIO PRADO DE MINAS, Minas Gerais, Brasil",
    "source": "city",
    "status": "ok",
    "uf": "MG"
  },
  "centro|araguari|mg": {
    "display_name": "Centro, Araguari, Região Geográfica Imediata de Uberlândia, Região Geográfica Intermediária de Uberlândia, Minas Gerais, Brasil",
    "lat": -18.6545756,
    "lng": -48.1950932,
    "query": "CENTRO, ARAGUARI, Minas Gerais, Brasil",
    "source": "neighborhood",
    "status": "ok",
    "uf": "MG"
  },
  "centro|araguatins|to": {
    "display_name": "Centro, Araguatins, Tocantins, Região Norte, 77950-000, Brasil",
    "lat": -5.648864,
    "lng": -48.1236783,
    "query": "CENTRO, Araguatins, Tocantins, Brasil",
    "source": "neighborhood",
    "status": "ok",
    "uf": "TO"
  },
  "centro|araponga|mg": {
    "display_name": "Centro de Pesquisa, MGC-482;BR-482, Bom Jesus do Madeira, Araponga, Região Geográfica Imediata de Viçosa, Região Geográfica Intermediária de Juiz de Fora, Minas Gerais, Brasil",
    "lat": -20.7210347,
    "lng": -42.4795448,
    "query": "CENTRO, ARAPONGA, Minas Gerais, Brasil",
    "source": "neighborhood",
    "status": "ok",
    "uf": "MG"
  },
  "centro|araporã|mg": {
    "display_name": "Centro de Eventos Chico do Pim, Rua Osvaldo Franceschi, Araporã, Minas Gerais, Região Sudeste, 38465-000, Brasil",
    "lat": -18.4347738,
    "lng": -49.1878645,
    "query": "CENTRO, ARAPORÃ, Minas Gerais, Brasil",
    "source": "neighborhood",
    "status": "ok",
    "uf": "MG"
  },
  "centro|araxá|mg": {
    "display_name": "Centro, Araxá, Minas Gerais, Região Sudeste, Brasil",
    "lat": -19.590512,
    "lng": -46.9380029,
    "query": "CENTRO, ARAXÁ, Minas Gerais, Brasil",
    "source": "neighborhood",
    "status": "ok",
    "uf": "MG"
  },
  "centro|araçuaí|mg": {
    "display_name": "Banco do Brasil, 205, Rua Jequitinhonha, Araçuaí, Minas Gerais, Região Sudeste, 39600-000, Brasil",
    "lat": -16.852258,
    "lng": -42.0669506,
    "query": "CENTRO, ARAÇUAÍ, Minas Gerais, Brasil",
    "source": "neighborhood",
    "status": "ok",
    "uf": "MG"
  },
  "centro|arcos|mg": {
    "display_name": "Centro, Arcos, Região Geográfica Imediata de Formiga, Região Geográfica Intermediária de Divinópolis, Minas Gerais, 35588-000, Brasil",
    "lat": -20.2850948,
    "lng": -45.5401169,
    "query": "CENTRO, ARCOS, Minas Gerais, Brasil",
    "source": "neighborhood",
    "status": "ok",
    "uf": "MG"
  },
  "centro|aricanduva|mg": {
    "display_name": "Aricanduva, Região Geográfica Imediata de Capelinha, Região Geográfica Intermediária de Teófilo Otoni, Minas Gerais, 39678-000, Brasil",
    "lat": -17.8678,
    "lng": -42.5569,
    "query": "ARICANDUVA, Minas Gerais, Brasil",
    "source": "city",
    "status": "ok",
    "uf": "MG"
  },
  "centro|arinos|mg": {
    "query": "CENTRO, ARINOS, Minas Gerais, Brasil",
    "status": "miss"
  },
  "centro|assis brasil|ac": {
    "display_name": "Prefeitura Municipal de Assis Brasil, 550, Rua Raimundo Chaar, Assis Brasil, Acre, Região Norte, 69935-000, Brasil",
    "lat": -10.9401337,
    "lng": -69.567128,
    "query": "CENTRO, Assis Brasil, Acre, Brasil",
    "source": "neighborhood",
    "status": "ok",
    "uf": "AC"
  },
  "centro|astolfo dutra|mg": {
    "display_name": "Centro Cultural, Rua Valdemar Almada, Astolfo Dutra, Minas Gerais, Região Sudeste, 36780-000, Brasil",
    "lat": -21.3138364,
    "lng": -42.8659574,
    "query": "CENTRO, ASTOLFO DUTRA, Minas Gerais, Brasil",
    "source": "neighborhood",
    "status": "ok",
    "uf": "MG"
  },
  "centro|ataléia|mg": {
    "display_name": "Centro, Ataléia, Região Geográfica Imediata de Teófilo Otoni, Região Geográfica Intermediária de Teófilo Otoni, Minas Gerais, 39850-000, Brasil",
    "lat": -18.0431962,
    "lng": -41.1106467,
    "query": "CENTRO, ATALÉIA, Minas Gerais, Brasil",
    "source": "neighborhood",
    "status": "ok",
    "uf": "MG"
  },
  "centro|açucena|mg": {
    "display_name": "Centro Cultural de Açucena, Praça Edson de Miranda, Açucena, Minas Gerais, Região Sudeste, 35147-000, Brasil",
    "lat": -19.0742491,
    "lng": -42.5467479,
    "query": "CENTRO, AÇUCENA, Minas Gerais, Brasil",
    "source": "neighborhood",
    "status": "ok",
    "uf": "MG"
  },
  "centro|baixa grande do ribeiro|pi": {
    "display_name": "Centro, Baixa Grande do Ribeiro, Piauí, Região Nordeste, 64868-000, Brasil",
    "lat": -7.8612079,
    "lng": -45.2104359,
    "query": "CENTRO, Baixa Grande Do Ribeiro, Piauí, Brasil",
    "source": "neighborhood",
    "status": "ok",
    "uf": "PI"
  },
  "centro|baldim|mg": {
    "display_name": "Centro Poliesportivo, Rua Baldim, Moreira, Santa Luzia, Minas Gerais, Região Sudeste, 30010-200, Brasil",
    "lat": -19.775211,
    "lng": -43.8621891,
    "query": "CENTRO, BALDIM, Minas Gerais, Brasil",
    "source": "neighborhood",
    "status": "ok",
    "uf": "MG"
  },
  "centro|balneario rincao|sc": {
    "display_name": "Centro, Balneário Rincão, Santa Catarina, Região Sul, Brasil",
    "lat": -28.8256297,
    "lng": -49.2308683,
    "query": "CENTRO, Balneario Rincao, Santa Catarina, Brasil",
    "source": "neighborhood",
    "status": "ok",
    "uf": "SC"
  },
  "centro|bambuí|mg": {
    "display_name": "Centro, Bambuí, Minas Gerais, Região Sudeste, Brasil",
    "lat": -20.0125548,
    "lng": -45.9780467,
    "query": "CENTRO, BAMBUÍ, Minas Gerais, Brasil",
    "source": "neighborhood",
    "status": "ok",
    "uf": "MG"
  },
  "centro|bandeira do sul|mg": {
    "query": "CENTRO, BANDEIRA DO SUL, Minas Gerais, Brasil",
    "status": "miss"
  },
  "centro|bandeira|mg": {
    "display_name": "Banco do Brasil, 138, Praça da Bandeira, Espera Feliz, Região Geográfica Imediata de Carangola, Região Geográfica Intermediária de Juiz de Fora, Minas Gerais, Região Sudeste, 36830-000, Brasil",
    "lat": -20.6476008,
    "lng": -41.9093759,
    "query": "CENTRO, BANDEIRA, Minas Gerais, Brasil",
    "source": "neighborhood",
    "status": "ok",
    "uf": "MG"
  },
  "centro|barbacena|mg": {
    "display_name": "Centro, Barbacena, Minas Gerais, Região Sudeste, 36200-072, Brasil",
    "lat": -21.2230796,
    "lng": -43.7722098,
    "query": "CENTRO, BARBACENA, Minas Gerais, Brasil",
    "source": "neighborhood",
    "status": "ok",
    "uf": "MG"
  },
  "centro|barras|pi": {
    "display_name": "Centro, Barras, Piauí, Região Nordeste, Brasil",
    "lat": -4.2454184,
    "lng": -42.2952382,
    "query": "CENTRO, Barras, Piauí, Brasil",
    "source": "neighborhood",
    "status": "ok",
    "uf": "PI"
  },
  "centro|barão de cocais|mg": {
    "display_name": "Centro, Barão de Cocais, Região Geográfica Imediata de Santa Bárbara - Ouro Preto, Região Geográfica Intermediária de Belo Horizonte, Minas Gerais, 35970-000, Brasil",
    "lat": -19.9413808,
    "lng": -43.4805823,
    "query": "CENTRO, BARÃO DE COCAIS, Minas Gerais, Brasil",
    "source": "neighborhood",
    "status": "ok",
    "uf": "MG"
  },
  "centro|belmiro braga|mg": {
    "display_name": "Belmiro Braga, Região Geográfica Imediata de Juiz de Fora, Região Geográfica Intermediária de Juiz de Fora, Minas Gerais, Brasil",
    "lat": -21.9486291,
    "lng": -43.413564,
    "query": "BELMIRO BRAGA, Minas Gerais, Brasil",
    "source": "city",
    "status": "ok",
    "uf": "MG"
  },
  "centro|belo horizonte|mg": {
    "display_name": "Centro, Regional Centro-Sul, Belo Horizonte, Região Geográfica Imediata de Belo Horizonte, Região Metropolitana de Belo Horizonte, Região Geográfica Intermediária de Belo Horizonte, Minas Gerais, Brasil",
    "lat": -19.9193308,
    "lng": -43.9403488,
    "query": "CENTRO, BELO HORIZONTE, Minas Gerais, Brasil",
    "source": "neighborhood",
    "status": "ok",
    "uf": "MG"
  },
  "centro|berizal|mg": {
    "display_name": "Centro Municipal de Saúde Manoel Alves do Nascimento, 812, Rua Santa Cruz, Berizal, Minas Gerais, Região Sudeste, 39555-000, Brasil",
    "lat": -15.6076412,
    "lng": -41.7373929,
    "query": "CENTRO, BERIZAL, Minas Gerais, Brasil",
    "source": "neighborhood",
    "status": "ok",
    "uf": "MG"
  },
  "centro|betim|mg": {
    "display_name": "Centro, Regional Sede, Betim, Minas Gerais, Região Sudeste, Brasil",
    "lat": -19.9691349,
    "lng": -44.1968991,
    "query": "CENTRO, BETIM, Minas Gerais, Brasil",
    "source": "neighborhood",
    "status": "ok",
    "uf": "MG"
  },
  "centro|biquinhas|mg": {
    "display_name": "Centro de Saúde Heliópolis, 120, Rua dos Beneditinos, Vila Biquinhas, Heliópolis, Regional Norte, Belo Horizonte, Minas Gerais, Região Sudeste, 31730-758, Brasil",
    "lat": -19.8432222,
    "lng": -43.9413312,
    "query": "CENTRO, BIQUINHAS, Minas Gerais, Brasil",
    "source": "neighborhood",
    "status": "ok",
    "uf": "MG"
  },
  "centro|bocaiúva|mg": {
    "display_name": "Centro, Bocaiuva, Região Geográfica Imediata de Montes Claros, Região Geográfica Intermediária de Montes Claros, Minas Gerais, Brasil",
    "lat": -17.1154479,
    "lng": -43.8103318,
    "query": "CENTRO, BOCAIÚVA, Minas Gerais, Brasil",
    "source": "neighborhood",
    "status": "ok",
    "uf": "MG"
  },
  "centro|bom despacho|mg": {
    "display_name": "Centro, Bom Despacho, Região Geográfica Imediata de Dores do Indaiá, Região Geográfica Intermediária de Divinópolis, Minas Gerais, 35630-072, Brasil",
    "lat": -19.7371681,
    "lng": -45.251881,
    "query": "CENTRO, BOM DESPACHO, Minas Gerais, Brasil",
    "source": "neighborhood",
    "status": "ok",
    "uf": "MG"
  },
  "centro|bom jesus do amparo|mg": {
    "display_name": "Centro, Bom Jesus do Amparo, Antônio dos Santos, Minas Gerais, Região Sudeste, Brasil",
    "lat": -19.7055666,
    "lng": -43.476001,
    "query": "CENTRO, BOM JESUS DO AMPARO, Minas Gerais, Brasil",
    "source": "neighborhood",
    "status": "ok",
    "uf": "MG"
  },
  "centro|bom jesus do galho|mg": {
    "display_name": "Bom Jesus do Galho, Região Geográfica Imediata de Caratinga, Região Geográfica Intermediária de Ipatinga, Minas Gerais, Região Sudeste, 35340-000, Brasil",
    "lat": -19.8283191,
    "lng": -42.3162256,
    "query": "BOM JESUS DO GALHO, Minas Gerais, Brasil",
    "source": "city",
    "status": "ok",
    "uf": "MG"
  },
  "centro|bom repouso|mg": {
    "query": "CENTRO, BOM REPOUSO, Minas Gerais, Brasil",
    "status": "miss"
  },
  "centro|bonfim do piaui|pi": {
    "display_name": "Centro Educacional Gasparino Ferreira, Rua Deputado Batista Dias, Bonfim do Piauí, Piauí, Região Nordeste, 64775-000, Brasil",
    "lat": -9.1697075,
    "lng": -42.8733438,
    "query": "CENTRO, Bonfim Do Piaui, Piauí, Brasil",
    "source": "neighborhood",
    "status": "ok",
    "uf": "PI"
  },
  "centro|bras pires|mg": {
    "display_name": "Brás Pires, Região Geográfica Imediata de Ubá, Região Geográfica Intermediária de Juiz de Fora, Minas Gerais, 36542-000, Brasil",
    "lat": -20.8483109,
    "lng": -43.2430524,
    "query": "BRAS PIRES, Minas Gerais, Brasil",
    "source": "city",
    "status": "ok",
    "uf": "MG"
  },
  "centro|brasília de minas|mg": {
    "display_name": "Centro de Formação de Condutores Nacional, Rua Brasília, Bairro dos Caiapós, Nacional, Justinópolis, Contagem, Minas Gerais, Região Sudeste, 32185-420, Brasil",
    "lat": -19.8380233,
    "lng": -44.0359073,
    "query": "CENTRO, BRASÍLIA DE MINAS, Minas Gerais, Brasil",
    "source": "neighborhood",
    "status": "ok",
    "uf": "MG"
  },
  "centro|brazópolis|mg": {
    "display_name": "Centro, Brazópolis, Minas Gerais, Região Sudeste, 37530-000, Brasil",
    "lat": -22.4753649,
    "lng": -45.6163502,
    "query": "CENTRO, BRAZÓPOLIS, Minas Gerais, Brasil",
    "source": "neighborhood",
    "status": "ok",
    "uf": "MG"
  },
  "centro|braúnas|mg": {
    "display_name": "CATRE - Centro Adventista de Treinamento e Recreação, 77, Rua Abner Borja, Braúnas, Nacional, Pampulha, Belo Horizonte, Minas Gerais, Região Sudeste, 32186-427, Brasil",
    "lat": -19.8525752,
    "lng": -44.0110157,
    "query": "CENTRO, BRAÚNAS, Minas Gerais, Brasil",
    "source": "neighborhood",
    "status": "ok",
    "uf": "MG"
  },
  "centro|breu branco|pa": {
    "display_name": "Centro de apoio do Campo Poeirão Esportes de aventura no Pará, Avenida Paraupebas, Breu Branco, Pará, Região Norte, 68488-000, Brasil",
    "lat": -3.7815272,
    "lng": -49.5719197,
    "query": "CENTRO, Breu Branco, Pará, Brasil",
    "source": "neighborhood",
    "status": "ok",
    "uf": "PA"
  },
  "centro|breves|pa": {
    "display_name": "Centro comunitario, Boa Fé, Curumu, Breves, Pará, Região Norte, Brasil",
    "lat": -1.1640258,
    "lng": -51.1362716,
    "query": "CENTRO, Breves, Pará, Brasil",
    "source": "neighborhood",
    "status": "ok",
    "uf": "PA"
  },
  "centro|bueno brandão|mg": {
    "query": "CENTRO, BUENO BRANDÃO, Minas Gerais, Brasil",
    "status": "miss"
  },
  "centro|buenópolis|mg": {
    "display_name": "Centro, Buenópolis, Minas Gerais, Região Sudeste, 39230-000, Brasil",
    "lat": -17.8742869,
    "lng": -44.1755594,
    "query": "CENTRO, BUENÓPOLIS, Minas Gerais, Brasil",
    "source": "neighborhood",
    "status": "ok",
    "uf": "MG"
  },
  "centro|bugre|mg": {
    "display_name": "Banco do Brasil, 120, Rua Chico Chumbo, Iapu, Bugre, Minas Gerais, Região Sudeste, 35193-000, Brasil",
    "lat": -19.4262634,
    "lng": -42.2533843,
    "query": "CENTRO, BUGRE, Minas Gerais, Brasil",
    "source": "neighborhood",
    "status": "ok",
    "uf": "MG"
  },
  "centro|buritizeiro|mg": {
    "display_name": "Centro, Buritizeiro, Minas Gerais, Região Sudeste, 39280-000, Brasil",
    "lat": -17.3600102,
    "lng": -44.9602878,
    "query": "CENTRO, BURITIZEIRO, Minas Gerais, Brasil",
    "source": "neighborhood",
    "status": "ok",
    "uf": "MG"
  },
  "centro|cachoeira da prata|mg": {
    "display_name": "Centro de Artesanato, Rua João Augusto de Melo, Cachoeira da Prata, Minas Gerais, Região Sudeste, 35765-000, Brasil",
    "lat": -19.5238208,
    "lng": -44.4570639,
    "query": "CENTRO, CACHOEIRA DA PRATA, Minas Gerais, Brasil",
    "source": "neighborhood",
    "status": "ok",
    "uf": "MG"
  },
  "centro|cachoeira de pajeú|mg": {
    "display_name": "Centro de Referência em Assistência Social, 16, Rua José Reis, Cachoeira de Pajeú, Região Geográfica Imediata de Pedra Azul, Região Geográfica Intermediária de Teófilo Otoni, Minas Gerais, 39980-000, Brasil",
    "lat": -15.9661692,
    "lng": -41.4974289,
    "query": "CENTRO, CACHOEIRA DE PAJEÚ, Minas Gerais, Brasil",
    "source": "neighborhood",
    "status": "ok",
    "uf": "MG"
  },
  "centro|caeté|mg": {
    "display_name": "Centro, Caeté, Antônio dos Santos, Minas Gerais, Região Sudeste, 34800-000, Brasil",
    "lat": -19.8988534,
    "lng": -43.6707434,
    "query": "CENTRO, CAETÉ, Minas Gerais, Brasil",
    "source": "neighborhood",
    "status": "ok",
    "uf": "MG"
  },
  "centro|caiana|mg": {
    "query": "CENTRO, CAIANA, Minas Gerais, Brasil",
    "status": "miss"
  },
  "centro|cajueiro da praia|pi": {
    "query": "CENTRO, Cajueiro Da Praia, Piauí, Brasil",
    "status": "miss"
  },
  "centro|cambuí|mg": {
    "display_name": "Centro, Cambuí, Região Geográfica Imediata de Pouso Alegre, Região Geográfica Intermediária de Pouso Alegre, Minas Gerais, Brasil",
    "lat": -22.6118716,
    "lng": -46.0582924,
    "query": "CENTRO, CAMBUÍ, Minas Gerais, Brasil",
    "source": "neighborhood",
    "status": "ok",
    "uf": "MG"
  },
  "centro|campanha|mg": {
    "display_name": "Campanha, Região Geográfica Imediata de Três Corações, Região Geográfica Intermediária de Varginha, Minas Gerais, 37400-000, Brasil",
    "lat": -21.8361108,
    "lng": -45.401986,
    "query": "CAMPANHA, Minas Gerais, Brasil",
    "source": "city",
    "status": "ok",
    "uf": "MG"
  },
  "centro|campanário|mg": {
    "query": "CENTRO, CAMPANÁRIO, Minas Gerais, Brasil",
    "status": "miss"
  },
  "centro|campos altos|mg": {
    "query": "CENTRO, CAMPOS ALTOS, Minas Gerais, Brasil",
    "status": "miss"
  },
  "centro|cana verde|mg": {
    "display_name": "Cana Verde, Região Geográfica Imediata de Lavras, Região Geográfica Intermediária de Varginha, Minas Gerais, Região Sudeste, 37267-000, Brasil",
    "lat": -21.021308,
    "lng": -45.1817881,
    "query": "CANA VERDE, Minas Gerais, Brasil",
    "source": "city",
    "status": "ok",
    "uf": "MG"
  },
  "centro|candeias|mg": {
    "display_name": "Escola Estadual Padre Américo, 261, Rua João Caetano de Faria, Candeias, Região Geográfica Imediata de Campo Belo, Região Geográfica Intermediária de Varginha, Minas Gerais, 37280-000, Brasil",
    "lat": -20.7675554,
    "lng": -45.2747374,
    "query": "R JOÃO CAETANO DE FARIA, 261, CENTRO, CANDEIAS, Minas Gerais, Brasil",
    "source": "address",
    "status": "ok",
    "uf": "MG"
  },
  "centro|cantagalo|mg": {
    "display_name": "Centro Esportivo Fidêncio de Almeida, Rua Nova Suiça, Cantagalo, Minas Gerais, Região Sudeste, 39703-000, Brasil",
    "lat": -18.5289737,
    "lng": -42.6230011,
    "query": "CENTRO, CANTAGALO, Minas Gerais, Brasil",
    "source": "neighborhood",
    "status": "ok",
    "uf": "MG"
  },
  "centro|canudos|ba": {
    "display_name": "Centro, Canudos, Bahia, Região Nordeste, 48520-000, Brasil",
    "lat": -9.8944356,
    "lng": -39.0261251,
    "query": "CENTRO, Canudos, Bahia, Brasil",
    "source": "neighborhood",
    "status": "ok",
    "uf": "BA"
  },
  "centro|capanema|pa": {
    "display_name": "Centro, Capanema, Pará, Região Norte, 68700-130, Brasil",
    "lat": -1.1925666,
    "lng": -47.1781575,
    "query": "CENTRO, Capanema, Pará, Brasil",
    "source": "neighborhood",
    "status": "ok",
    "uf": "PA"
  },
  "centro|caparaó|mg": {
    "display_name": "Coreto do Centro da Cidade de Caparaó, Avenida Américo Vespúcio de Carvalho, Caparaó, Região Geográfica Imediata de Manhuaçu, Região Geográfica Intermediária de Juiz de Fora, Minas Gerais, 36834-000, Brasil",
    "lat": -20.5244179,
    "lng": -41.9057938,
    "query": "CENTRO, CAPARAÓ, Minas Gerais, Brasil",
    "source": "neighborhood",
    "status": "ok",
    "uf": "MG"
  },
  "centro|capela nova|mg": {
    "query": "CENTRO, CAPELA NOVA, Minas Gerais, Brasil",
    "status": "miss"
  },
  "centro|capelinha|mg": {
    "display_name": "Centro, Capelinha, Região Geográfica Imediata de Capelinha, Região Geográfica Intermediária de Teófilo Otoni, Minas Gerais, 39680-000, Brasil",
    "lat": -17.6929072,
    "lng": -42.5165749,
    "query": "CENTRO, CAPELINHA, Minas Gerais, Brasil",
    "source": "neighborhood",
    "status": "ok",
    "uf": "MG"
  },
  "centro|capitólio|mg": {
    "display_name": "Centro, Capitólio, Minas Gerais, Região Sudeste, Brasil",
    "lat": -20.6148694,
    "lng": -46.0516016,
    "query": "CENTRO, CAPITÓLIO, Minas Gerais, Brasil",
    "source": "neighborhood",
    "status": "ok",
    "uf": "MG"
  },
  "centro|capoeiras|pe": {
    "query": "CENTRO, Capoeiras, Pernambuco, Brasil",
    "status": "miss"
  },
  "centro|caranaíba|mg": {
    "display_name": "CRAS - Centro de Referência em Assistência Social, 180, Rua Santa Terezinha, Caranaíba, Prefeitura Municipal de Carandaí, Minas Gerais, Região Sudeste, 36428-000, Brasil",
    "lat": -20.8730829,
    "lng": -43.7391413,
    "query": "CENTRO, CARANAÍBA, Minas Gerais, Brasil",
    "source": "neighborhood",
    "status": "ok",
    "uf": "MG"
  },
  "centro|carangola|mg": {
    "display_name": "Centro Municipal de Educação Lelena de Oliveira, Praça Governador Valadares, Carangola, Região Geográfica Imediata de Carangola, Região Geográfica Intermediária de Juiz de Fora, Minas Gerais, Região Sudeste, 36800-000, Brasil",
    "lat": -20.7301996,
    "lng": -42.034902,
    "query": "CENTRO, CARANGOLA, Minas Gerais, Brasil",
    "source": "neighborhood",
    "status": "ok",
    "uf": "MG"
  },
  "centro|caratinga|mg": {
    "display_name": "Centro, Morro do Escorpião, Caratinga, Região Geográfica Imediata de Caratinga, Região Geográfica Intermediária de Ipatinga, Minas Gerais, Brasil",
    "lat": -19.7884503,
    "lng": -42.1410227,
    "query": "Centro, CARATINGA, Minas Gerais, Brasil",
    "source": "neighborhood",
    "status": "ok",
    "uf": "MG"
  },
  "centro|carbonita|mg": {
    "display_name": "Centro Automotivo & Acessorios Nunes Rocha, 0, MGC-451;BR-451, Carbonita, Minas Gerais, Região Sudeste, 39665-000, Brasil",
    "lat": -17.5473159,
    "lng": -43.0144017,
    "query": "CENTRO, CARBONITA, Minas Gerais, Brasil",
    "source": "neighborhood",
    "status": "ok",
    "uf": "MG"
  },
  "centro|careaçu|mg": {
    "display_name": "Careaçu, Região Geográfica Imediata de Pouso Alegre, Região Geográfica Intermediária de Pouso Alegre, Minas Gerais, Brasil",
    "lat": -22.0434124,
    "lng": -45.6995247,
    "query": "CAREAÇU, Minas Gerais, Brasil",
    "source": "city",
    "status": "ok",
    "uf": "MG"
  },
  "centro|careiro|am": {
    "query": "CENTRO, Careiro, Amazonas, Brasil",
    "status": "miss"
  },
  "centro|carlos chagas|mg": {
    "display_name": "Carlos Chagas, Região Geográfica Imediata de Teófilo Otoni, Região Geográfica Intermediária de Teófilo Otoni, Minas Gerais, 39864-000, Brasil",
    "lat": -17.7030797,
    "lng": -40.7632936,
    "query": "CARLOS CHAGAS, Minas Gerais, Brasil",
    "source": "city",
    "status": "ok",
    "uf": "MG"
  },
  "centro|carmo da cachoeira|mg": {
    "query": "CENTRO, CARMO DA CACHOEIRA, Minas Gerais, Brasil",
    "status": "miss"
  },
  "centro|carmo da mata|mg": {
    "query": "CENTRO, CARMO DA MATA, Minas Gerais, Brasil",
    "status": "miss"
  },
  "centro|carmo de minas|mg": {
    "display_name": "Centro, Carmo do Cajuru, Minas Gerais, Região Sudeste, 35510-000, Brasil",
    "lat": -20.1901707,
    "lng": -44.7676004,
    "query": "CENTRO, CARMO DE MINAS, Minas Gerais, Brasil",
    "source": "neighborhood",
    "status": "ok",
    "uf": "MG"
  },
  "centro|carmo do cajuru|mg": {
    "display_name": "Centro, Carmo do Cajuru, Minas Gerais, Região Sudeste, 35510-000, Brasil",
    "lat": -20.1901707,
    "lng": -44.7676004,
    "query": "CENTRO, CARMO DO CAJURU, Minas Gerais, Brasil",
    "source": "neighborhood",
    "status": "ok",
    "uf": "MG"
  },
  "centro|carmo do paranaíba|mg": {
    "query": "CENTRO, CARMO DO PARANAÍBA, Minas Gerais, Brasil",
    "status": "miss"
  },
  "centro|carneirinho|mg": {
    "query": "CENTRO, CARNEIRINHO, Minas Gerais, Brasil",
    "status": "miss"
  },
  "centro|carrancas|mg": {
    "display_name": "Centro de Saúde Doutor Manoel Moreira da S. Junior, Rua Coronel Antônio Francisco, Carrancas, Região Geográfica Imediata de Lavras, Região Geográfica Intermediária de Varginha, Minas Gerais, Brasil",
    "lat": -21.4880499,
    "lng": -44.6446469,
    "query": "CENTRO, CARRANCAS, Minas Gerais, Brasil",
    "source": "neighborhood",
    "status": "ok",
    "uf": "MG"
  },
  "centro|casa grande|mg": {
    "query": "CENTRO, CASA GRANDE, Minas Gerais, Brasil",
    "status": "miss"
  },
  "centro|cataguases|mg": {
    "display_name": "Centro, Sereno, Cataguases, Região Geográfica Imediata de Cataguases, Região Geográfica Intermediária de Juiz de Fora, Minas Gerais, 36774-794, Brasil",
    "lat": -21.3146438,
    "lng": -42.649194,
    "query": "CENTRO, CATAGUASES, Minas Gerais, Brasil",
    "source": "neighborhood",
    "status": "ok",
    "uf": "MG"
  },
  "centro|catas altas da noruega|mg": {
    "query": "CENTRO, CATAS ALTAS DA NORUEGA, Minas Gerais, Brasil",
    "status": "miss"
  },